[{"name": "La Baia dei Fenici", "service_type": "wedding_planning", "address": "Strada Statale 113 89 90017 Solanto Italy", "city": "Solanto", "contact": "+39091900692", "hours": "null", "picture_url": "https://s3-media0.fl.yelpcdn.com/bphoto/RQbfy7eft_f3jMnqNrQNZA/o.jpg", "website": "https://www.yelp.com/biz/la-baia-dei-fenici-solanto?adjust_creative=fQEgjgf16LQ5Et2n5ni8xw&utm_campaign=yelp_api_v3&utm_medium=api_v3_business_search&utm_source=fQEgjgf16LQ5Et2n5ni8xw"}, {"name": "Relais Borgo degli Angeli", "service_type": "wedding_planning", "address": "Contrada Bosco Falconeria SS 113 km 318,900 90047 Partinico PA Italy", "city": "Partinico PA", "contact": "+390918789266", "hours": "null", "picture_url": "https://s3-media0.fl.yelpcdn.com/bphoto/hYyIUWWqxSj1dNrKUDo08w/o.jpg", "website": "https://www.yelp.com/biz/relais-borgo-degli-angeli-partinico-pa?adjust_creative=fQEgjgf16LQ5Et2n5ni8xw&utm_campaign=yelp_api_v3&utm_medium=api_v3_business_search&utm_source=fQEgjgf16LQ5Et2n5ni8xw"}, {"name": "Autonoleggi Riggi", "service_type": "wedding_planning", "address": "Via Leoncavallo 14A 93017 San Cataldo Italy", "city": "San Cataldo", "contact": "+393891304525", "hours": "null", "picture_url": "", "website": "https://www.yelp.com/biz/autonoleggi-riggi-san-cataldo-2?adjust_creative=fQEgjgf16LQ5Et2n5ni8xw&utm_campaign=yelp_api_v3&utm_medium=api_v3_business_search&utm_source=fQEgjgf16LQ5Et2n5ni8xw"}, {"name": "Corner di Frutti&fiori", "service_type": "wedding_planning", "address": "Via Madonna del Ponte 62 90041 Balestrate Italy", "city": "Balestrate", "contact": "+390918787164", "hours": "null", "picture_url": "https://s3-media0.fl.yelpcdn.com/bphoto/A4InHHKScxBY5glJvVFsTg/o.jpg", "website": "https://www.yelp.com/biz/corner-di-frutti-e-fiori-balestrate?adjust_creative=fQEgjgf16LQ5Et2n5ni8xw&utm_campaign=yelp_api_v3&utm_medium=api_v3_business_search&utm_source=fQEgjgf16LQ5Et2n5ni8xw"}, {"name": "sicilianozze", "service_type": "wedding_planning", "address": "Via Croce Rossa 113 90100 Palermo Italy", "city": "Palermo", "contact": "+393273213617", "hours": "null", "picture_url": "https://s3-media0.fl.yelpcdn.com/bphoto/tMQP8eia-A_rWRaWvgFPRg/o.jpg", "website": "https://www.yelp.com/biz/sicilianozze-palermo?adjust_creative=fQEgjgf16LQ5Et2n5ni8xw&utm_campaign=yelp_api_v3&utm_medium=api_v3_business_search&utm_source=fQEgjgf16LQ5Et2n5ni8xw"}, {"name": "Sala Ricevimenti Serena", "service_type": "wedding_planning", "address": "Via dei Laterizi 1 Strada Statale 115 91026 Mazara Del Vallo Italy", "city": "Mazara Del Vallo", "contact": "+390923945638", "hours": "null", "picture_url": "https://s3-media0.fl.yelpcdn.com/bphoto/lrao27DvN8LrbhiWK7EQng/o.jpg", "website": "https://www.yelp.com/biz/sala-ricevimenti-serena-mazara-del-vallo-2?adjust_creative=fQEgjgf16LQ5Et2n5ni8xw&utm_campaign=yelp_api_v3&utm_medium=api_v3_business_search&utm_source=fQEgjgf16LQ5Et2n5ni8xw"}, {"name": "Fotostudio Star", "service_type": "wedding_planning", "address": "Corso Margherita 112 92016 Ribera Italy", "city": "Ribera", "contact": "+390925544576", "hours": "null", "picture_url": "", "website": "https://www.yelp.com/biz/fotostudio-star-ribera?adjust_creative=fQEgjgf16LQ5Et2n5ni8xw&utm_campaign=yelp_api_v3&utm_medium=api_v3_business_search&utm_source=fQEgjgf16LQ5Et2n5ni8xw"}, {"name": "Va.Zi. Italia", "service_type": "wedding_planning", "address": "Piazza Tommaso Natale 117 90147 Palermo Italy", "city": "Palermo", "contact": "+393385463569", "hours": "null", "picture_url": "https://s3-media0.fl.yelpcdn.com/bphoto/zGH6qMobv7BgcE3r1P6y1w/o.jpg", "website": "https://www.yelp.com/biz/va-zi-italia-palermo?adjust_creative=fQEgjgf16LQ5Et2n5ni8xw&utm_campaign=yelp_api_v3&utm_medium=api_v3_business_search&utm_source=fQEgjgf16LQ5Et2n5ni8xw"}, {"name": "Lillo Foto", "service_type": "photographers", "address": "Via Terrasanta 78 90141 Palermo Italy", "city": "Palermo", "contact": "+390916262126", "hours": "null", "picture_url": "https://s3-media0.fl.yelpcdn.com/bphoto/P-SaiFIZqeaPTZ9G6VPxSA/o.jpg", "website": "https://www.yelp.com/biz/lillo-foto-palermo-2?adjust_creative=fQEgjgf16LQ5Et2n5ni8xw&utm_campaign=yelp_api_v3&utm_medium=api_v3_business_search&utm_source=fQEgjgf16LQ5Et2n5ni8xw"}, {"name": "Studio Immagine", "service_type": "photographers", "address": "Via Giuseppe Sciuti 126 90144 Palermo Italy", "city": "Palermo", "contact": "+39091513181", "hours": "null", "picture_url": "https://s3-media0.fl.yelpcdn.com/bphoto/4NL3uCYNcsXPbbG9uxontQ/o.jpg", "website": "https://www.yelp.com/biz/studio-immagine-palermo?adjust_creative=fQEgjgf16LQ5Et2n5ni8xw&utm_campaign=yelp_api_v3&utm_medium=api_v3_business_search&utm_source=fQEgjgf16LQ5Et2n5ni8xw"}, {"name": "Giancarlo Cianciolo", "service_type": "photographers", "address": "Corso Scin\u00e0 172 90139 Palermo Italy", "city": "Palermo", "contact": "+39091586073", "hours": "null", "picture_url": "", "website": "https://www.yelp.com/biz/giancarlo-cianciolo-palermo?adjust_creative=fQEgjgf16LQ5Et2n5ni8xw&utm_campaign=yelp_api_v3&utm_medium=api_v3_business_search&utm_source=fQEgjgf16LQ5Et2n5ni8xw"}, {"name": "Fotografo Fabio Corselli", "service_type": "photographers", "address": "90100 Palermo Italy", "city": "Palermo", "contact": "+393913621537", "hours": "null", "picture_url": "https://s3-media0.fl.yelpcdn.com/bphoto/JOq3q-Sz9VnzwJBTkzRqbw/o.jpg", "website": "https://www.yelp.com/biz/fotografo-fabio-corselli-palermo?adjust_creative=fQEgjgf16LQ5Et2n5ni8xw&utm_campaign=yelp_api_v3&utm_medium=api_v3_business_search&utm_source=fQEgjgf16LQ5Et2n5ni8xw"}, {"name": "Crealab", "service_type": "photographers", "address": "Via Principe di Scordia 64 90139 Palermo Italy", "city": "Palermo", "contact": "+390917775920", "hours": "null", "picture_url": "", "website": "https://www.yelp.com/biz/crealab-palermo?adjust_creative=fQEgjgf16LQ5Et2n5ni8xw&utm_campaign=yelp_api_v3&utm_medium=api_v3_business_search&utm_source=fQEgjgf16LQ5Et2n5ni8xw"}, {"name": "Marzullo Fotografia", "service_type": "photographers", "address": "Via Uditore 7D 90145 Palermo Italy", "city": "Palermo", "contact": "+393890757252", "hours": "null", "picture_url": "", "website": "https://www.yelp.com/biz/marzullo-fotografia-palermo?adjust_creative=fQEgjgf16LQ5Et2n5ni8xw&utm_campaign=yelp_api_v3&utm_medium=api_v3_business_search&utm_source=fQEgjgf16LQ5Et2n5ni8xw"}, {"name": "Asterisco23", "service_type": "photographers", "address": "Via Gino Funaioli 23 90123 Palermo Italy", "city": "Palermo", "contact": "+390917645041", "hours": "null", "picture_url": "https://s3-media0.fl.yelpcdn.com/bphoto/KyBAmTSg9DgGRC71e_6YuQ/o.jpg", "website": "https://www.yelp.com/biz/asterisco23-palermo?adjust_creative=fQEgjgf16LQ5Et2n5ni8xw&utm_campaign=yelp_api_v3&utm_medium=api_v3_business_search&utm_source=fQEgjgf16LQ5Et2n5ni8xw"}, {"name": "Plc Album", "service_type": "photographers", "address": "Via Paolo Veronese 9 90145 Palermo Italy", "city": "Palermo", "contact": "+39091363142", "hours": "null", "picture_url": "https://s3-media0.fl.yelpcdn.com/bphoto/hGCELlY1hOkKi3aK_xeDZw/o.jpg", "website": "https://www.yelp.com/biz/plc-album-palermo?adjust_creative=fQEgjgf16LQ5Et2n5ni8xw&utm_campaign=yelp_api_v3&utm_medium=api_v3_business_search&utm_source=fQEgjgf16LQ5Et2n5ni8xw"}, {"name": "Cristiano Cannella Photography", "service_type": "photographers", "address": "Via Resuttana 352 90146 PA Italy", "city": "PA", "contact": "+390918776591", "hours": "null", "picture_url": "https://s3-media0.fl.yelpcdn.com/bphoto/AnncRjwj02CaqFzgUuJrxg/o.jpg", "website": "https://www.yelp.com/biz/cristiano-cannella-photography-pa?adjust_creative=fQEgjgf16LQ5Et2n5ni8xw&utm_campaign=yelp_api_v3&utm_medium=api_v3_business_search&utm_source=fQEgjgf16LQ5Et2n5ni8xw"}, {"name": "Fotografo Matrimonio Palermo Fabio Sciacchitano", "service_type": "photographers", "address": "Corso Umberto I, 99 90011 Bagheria Italy", "city": "Bagheria", "contact": "+393200396546", "hours": "null", "picture_url": "https://s3-media0.fl.yelpcdn.com/bphoto/uTfvs2to4eZj48FynScDhw/o.jpg", "website": "https://www.yelp.com/biz/fotografo-matrimonio-palermo-fabio-sciacchitano-bagheria-3?adjust_creative=fQEgjgf16LQ5Et2n5ni8xw&utm_campaign=yelp_api_v3&utm_medium=api_v3_business_search&utm_source=fQEgjgf16LQ5Et2n5ni8xw"}, {"name": "Frida Pizzeria", "service_type": "caterers", "address": "Piazza Sant'Onofrio 37 90134 Palermo Italy", "city": "Palermo", "contact": "+390915505440", "hours": "null", "picture_url": "https://s3-media0.fl.yelpcdn.com/bphoto/RSd_JQkGi70MNrdyZvTFvw/o.jpg", "website": "https://www.yelp.com/biz/frida-pizzeria-palermo-2?adjust_creative=fQEgjgf16LQ5Et2n5ni8xw&utm_campaign=yelp_api_v3&utm_medium=api_v3_business_search&utm_source=fQEgjgf16LQ5Et2n5ni8xw"}, {"name": "La Corte dei Mangioni", "service_type": "caterers", "address": "Via Sammartino 97 90141 Palermo Italy", "city": "Palermo", "contact": "+390916255360", "hours": "null", "picture_url": "https://s3-media0.fl.yelpcdn.com/bphoto/VCRhOff0qJguWYIxImIRiQ/o.jpg", "website": "https://www.yelp.com/biz/la-corte-dei-mangioni-palermo-2?adjust_creative=fQEgjgf16LQ5Et2n5ni8xw&utm_campaign=yelp_api_v3&utm_medium=api_v3_business_search&utm_source=fQEgjgf16LQ5Et2n5ni8xw"}, {"name": "I Cucci", "service_type": "caterers", "address": "Piazza Bologni 3 90134 Palermo Italy", "city": "Palermo", "contact": "+390917477151", "hours": "null", "picture_url": "https://s3-media0.fl.yelpcdn.com/bphoto/BPWOKI9N4xWbFTKEfVk2Qw/o.jpg", "website": "https://www.yelp.com/biz/i-cucci-palermo?adjust_creative=fQEgjgf16LQ5Et2n5ni8xw&utm_campaign=yelp_api_v3&utm_medium=api_v3_business_search&utm_source=fQEgjgf16LQ5Et2n5ni8xw"}, {"name": "Ristorante PRIMI PIATTI", "service_type": "caterers", "address": "Vicolo San Giuseppe 2/c 90134 Palermo Italy", "city": "Palermo", "contact": "+390916111110", "hours": "null", "picture_url": "https://s3-media0.fl.yelpcdn.com/bphoto/szqP582jgmykWqJXV0BiPA/o.jpg", "website": "https://www.yelp.com/biz/ristorante-primi-piatti-palermo-4?adjust_creative=fQEgjgf16LQ5Et2n5ni8xw&utm_campaign=yelp_api_v3&utm_medium=api_v3_business_search&utm_source=fQEgjgf16LQ5Et2n5ni8xw"}, {"name": "Ferro di Cavallo", "service_type": "caterers", "address": "Via Venezia 20 90133 Palermo Italy", "city": "Palermo", "contact": "+39091331835", "hours": "null", "picture_url": "https://s3-media0.fl.yelpcdn.com/bphoto/AZiytdDJSPgLZfPlY4C5uA/o.jpg", "website": "https://www.yelp.com/biz/ferro-di-cavallo-palermo?adjust_creative=fQEgjgf16LQ5Et2n5ni8xw&utm_campaign=yelp_api_v3&utm_medium=api_v3_business_search&utm_source=fQEgjgf16LQ5Et2n5ni8xw"}, {"name": "La Galleria", "service_type": "caterers", "address": "Piazza Sett'Angeli 3 90134 Palermo Italy", "city": "Palermo", "contact": "+393299815433", "hours": "null", "picture_url": "https://s3-media0.fl.yelpcdn.com/bphoto/nl-AS6eE3AF01Qpwnl_ysw/o.jpg", "website": "https://www.yelp.com/biz/la-galleria-palermo?adjust_creative=fQEgjgf16LQ5Et2n5ni8xw&utm_campaign=yelp_api_v3&utm_medium=api_v3_business_search&utm_source=fQEgjgf16LQ5Et2n5ni8xw"}, {"name": "Antica Focacceria San Francesco", "service_type": "caterers", "address": "Via Alessandro Paternostro 58 90133 Palermo Italy", "city": "Palermo", "contact": "+39091320264", "hours": "null", "picture_url": "https://s3-media0.fl.yelpcdn.com/bphoto/LyYW8HjsZK-UYkMe-PnjHA/o.jpg", "website": "https://www.yelp.com/biz/antica-focacceria-san-francesco-palermo?adjust_creative=fQEgjgf16LQ5Et2n5ni8xw&utm_campaign=yelp_api_v3&utm_medium=api_v3_business_search&utm_source=fQEgjgf16LQ5Et2n5ni8xw"}, {"name": "Caff\u00e8 Pasticceria Spinnato", "service_type": "caterers", "address": "Via Principe di Belmonte 111 90139 Palermo Italy", "city": "Palermo", "contact": "+390917495104", "hours": "null", "picture_url": "https://s3-media0.fl.yelpcdn.com/bphoto/qk0Bg09XAaDebzSRi4I08g/o.jpg", "website": "https://www.yelp.com/biz/caff%C3%A8-pasticceria-spinnato-palermo-2?adjust_creative=fQEgjgf16LQ5Et2n5ni8xw&utm_campaign=yelp_api_v3&utm_medium=api_v3_business_search&utm_source=fQEgjgf16LQ5Et2n5ni8xw"}, {"name": "Giada", "service_type": "caterers", "address": "Via Principe di Belmonte 64 90139 Palermo Italy", "city": "Palermo", "contact": "+39091331860", "hours": "null", "picture_url": "https://s3-media0.fl.yelpcdn.com/bphoto/tLBIQCCIKdIiEqRWJQaDJA/o.jpg", "website": "https://www.yelp.com/biz/giada-palermo?adjust_creative=fQEgjgf16LQ5Et2n5ni8xw&utm_campaign=yelp_api_v3&utm_medium=api_v3_business_search&utm_source=fQEgjgf16LQ5Et2n5ni8xw"}, {"name": "Bisso", "service_type": "caterers", "address": "Via Maqueda 172A 90133 Palermo Italy", "city": "Palermo", "contact": "+393281314595", "hours": "null", "picture_url": "https://s3-media0.fl.yelpcdn.com/bphoto/9NIqzR6PHdSFAO-EjEnL9g/o.jpg", "website": "https://www.yelp.com/biz/bisso-palermo?adjust_creative=fQEgjgf16LQ5Et2n5ni8xw&utm_campaign=yelp_api_v3&utm_medium=api_v3_business_search&utm_source=fQEgjgf16LQ5Et2n5ni8xw"}, {"name": "Casa del Brodo", "service_type": "caterers", "address": "Via Vittorio Emanuele 175 90133 Palermo Italy", "city": "Palermo", "contact": "+39091321655", "hours": "null", "picture_url": "https://s3-media0.fl.yelpcdn.com/bphoto/ubKT0i5Rmzyyri5G7pyBrg/o.jpg", "website": "https://www.yelp.com/biz/casa-del-brodo-palermo?adjust_creative=fQEgjgf16LQ5Et2n5ni8xw&utm_campaign=yelp_api_v3&utm_medium=api_v3_business_search&utm_source=fQEgjgf16LQ5Et2n5ni8xw"}, {"name": "Da Bacco", "service_type": "caterers", "address": "Via Orologio 29 90133 Palermo Italy", "city": "Palermo", "contact": "+393663963395", "hours": "null", "picture_url": "https://s3-media0.fl.yelpcdn.com/bphoto/Ezog2zysva1scbPwtBg6eQ/o.jpg", "website": "https://www.yelp.com/biz/da-bacco-palermo?adjust_creative=fQEgjgf16LQ5Et2n5ni8xw&utm_campaign=yelp_api_v3&utm_medium=api_v3_business_search&utm_source=fQEgjgf16LQ5Et2n5ni8xw"}, {"name": "Osteria Ballaro", "service_type": "caterers", "address": "Via Calascibetta, 25 Pa 90133 Palermo Italy", "city": "Palermo", "contact": "+390917910184", "hours": "null", "picture_url": "https://s3-media0.fl.yelpcdn.com/bphoto/gNRlbLFTwJdjnpp_LXMOQg/o.jpg", "website": "https://www.yelp.com/biz/osteria-ballaro-palermo?adjust_creative=fQEgjgf16LQ5Et2n5ni8xw&utm_campaign=yelp_api_v3&utm_medium=api_v3_business_search&utm_source=fQEgjgf16LQ5Et2n5ni8xw"}, {"name": "CIN CIN", "service_type": "caterers", "address": "Via Daniele Manin 22 90139 Palermo Italy", "city": "Palermo", "contact": "+390916112038", "hours": "null", "picture_url": "https://s3-media0.fl.yelpcdn.com/bphoto/vhjxk-9VtgfgrmeMDvoGdg/o.jpg", "website": "https://www.yelp.com/biz/cin-cin-palermo?adjust_creative=fQEgjgf16LQ5Et2n5ni8xw&utm_campaign=yelp_api_v3&utm_medium=api_v3_business_search&utm_source=fQEgjgf16LQ5Et2n5ni8xw"}, {"name": "Piccolo Napoli", "service_type": "caterers", "address": "Piazzetta Mulino a Vento 4 90139 Palermo Italy", "city": "Palermo", "contact": "+39091320431", "hours": "null", "picture_url": "https://s3-media0.fl.yelpcdn.com/bphoto/6aw4-DHZIbu9n9GitT2Yew/o.jpg", "website": "https://www.yelp.com/biz/piccolo-napoli-palermo?adjust_creative=fQEgjgf16LQ5Et2n5ni8xw&utm_campaign=yelp_api_v3&utm_medium=api_v3_business_search&utm_source=fQEgjgf16LQ5Et2n5ni8xw"}, {"name": "Cattedrale di Palermo", "service_type": "caterers", "address": "Via Vittorio Emanuele 90040 Palermo Italy", "city": "Palermo", "contact": "+39091334373", "hours": "null", "picture_url": "https://s3-media0.fl.yelpcdn.com/bphoto/RPWbKJBBI90uUZxKGoElnw/o.jpg", "website": "https://www.yelp.com/biz/cattedrale-di-palermo-palermo?adjust_creative=fQEgjgf16LQ5Et2n5ni8xw&utm_campaign=yelp_api_v3&utm_medium=api_v3_business_search&utm_source=fQEgjgf16LQ5Et2n5ni8xw"}, {"name": "La Duchessa", "service_type": "caterers", "address": "Via Principe di Belmonte 69 90100 Palermo Italy", "city": "Palermo", "contact": "+390915086896", "hours": "null", "picture_url": "https://s3-media0.fl.yelpcdn.com/bphoto/gbgnxC3pYv4XNdx_YC83SQ/o.jpg", "website": "https://www.yelp.com/biz/la-duchessa-palermo?adjust_creative=fQEgjgf16LQ5Et2n5ni8xw&utm_campaign=yelp_api_v3&utm_medium=api_v3_business_search&utm_source=fQEgjgf16LQ5Et2n5ni8xw"}, {"name": "FUD", "service_type": "caterers", "address": "Piazza Olivella 4 90133 Palermo Italy", "city": "Palermo", "contact": "+390916112184", "hours": "null", "picture_url": "https://s3-media0.fl.yelpcdn.com/bphoto/S4A_xe30hM-4LnCLDJEeWQ/o.jpg", "website": "https://www.yelp.com/biz/fud-palermo?adjust_creative=fQEgjgf16LQ5Et2n5ni8xw&utm_campaign=yelp_api_v3&utm_medium=api_v3_business_search&utm_source=fQEgjgf16LQ5Et2n5ni8xw"}, {"name": "Sal Capone SushiClub", "service_type": "caterers", "address": "Via Catania,44 90141 Palermo Italy", "city": "Palermo", "contact": "+390916258285", "hours": "null", "picture_url": "https://s3-media0.fl.yelpcdn.com/bphoto/a5N8xtH8y6elEAJ3--TkTg/o.jpg", "website": "https://www.yelp.com/biz/sal-capone-sushiclub-palermo-2?adjust_creative=fQEgjgf16LQ5Et2n5ni8xw&utm_campaign=yelp_api_v3&utm_medium=api_v3_business_search&utm_source=fQEgjgf16LQ5Et2n5ni8xw"}, {"name": "Mangia & Bevi", "service_type": "caterers", "address": "Largo cavalieri di Malta 18 90133 Palermo Italy", "city": "Palermo", "contact": "+390915073943", "hours": "null", "picture_url": "https://s3-media0.fl.yelpcdn.com/bphoto/-V4-nsQ4OZMzecrWit0ldA/o.jpg", "website": "https://www.yelp.com/biz/mangia-e-bevi-palermo?adjust_creative=fQEgjgf16LQ5Et2n5ni8xw&utm_campaign=yelp_api_v3&utm_medium=api_v3_business_search&utm_source=fQEgjgf16LQ5Et2n5ni8xw"}, {"name": "Trattoria Biondo", "service_type": "caterers", "address": "Via Giosue' Carducci 15 90141 Palermo Italy", "city": "Palermo", "contact": "+39091583662", "hours": "null", "picture_url": "https://s3-media0.fl.yelpcdn.com/bphoto/X_l7nBZwG7tN4mGnIktPrg/o.jpg", "website": "https://www.yelp.com/biz/trattoria-biondo-palermo?adjust_creative=fQEgjgf16LQ5Et2n5ni8xw&utm_campaign=yelp_api_v3&utm_medium=api_v3_business_search&utm_source=fQEgjgf16LQ5Et2n5ni8xw"}, {"name": "Nni Franco 'u Vastiddaru", "service_type": "caterers", "address": "Via Vittorio Emanuele 102 90133 Palermo Italy", "city": "Palermo", "contact": "+39091325987", "hours": "null", "picture_url": "https://s3-media0.fl.yelpcdn.com/bphoto/lu4dYowix6-rMDqi7kUCcQ/o.jpg", "website": "https://www.yelp.com/biz/nni-franco-u-vastiddaru-palermo?adjust_creative=fQEgjgf16LQ5Et2n5ni8xw&utm_campaign=yelp_api_v3&utm_medium=api_v3_business_search&utm_source=fQEgjgf16LQ5Et2n5ni8xw"}, {"name": "Arancina D'Autore", "service_type": "caterers", "address": "Via Maqueda 270 90133 Palermo Italy", "city": "Palermo", "contact": "+390916112009", "hours": "null", "picture_url": "https://s3-media0.fl.yelpcdn.com/bphoto/Ah9JeSgUD6ejy4HEGZtK2Q/o.jpg", "website": "https://www.yelp.com/biz/arancina-d-autore-palermo?adjust_creative=fQEgjgf16LQ5Et2n5ni8xw&utm_campaign=yelp_api_v3&utm_medium=api_v3_business_search&utm_source=fQEgjgf16LQ5Et2n5ni8xw"}, {"name": "Ke Palle", "service_type": "caterers", "address": "Via Terrasanta 111 90141 Palermo Italy", "city": "Palermo", "contact": "", "hours": "null", "picture_url": "https://s3-media0.fl.yelpcdn.com/bphoto/8U7ULq-63KN_9IYdEsGq9A/o.jpg", "website": "https://www.yelp.com/biz/ke-palle-palermo?adjust_creative=fQEgjgf16LQ5Et2n5ni8xw&utm_campaign=yelp_api_v3&utm_medium=api_v3_business_search&utm_source=fQEgjgf16LQ5Et2n5ni8xw"}, {"name": "Antica Trattoria Pizzeria Enzo", "service_type": "caterers", "address": "Via Maurolico 17 90127 Palermo Italy", "city": "Palermo", "contact": "+390916163854", "hours": "null", "picture_url": "https://s3-media0.fl.yelpcdn.com/bphoto/yTY1QF4D1HT6s_N6S7RZjg/o.jpg", "website": "https://www.yelp.com/biz/antica-trattoria-pizzeria-enzo-palermo?adjust_creative=fQEgjgf16LQ5Et2n5ni8xw&utm_campaign=yelp_api_v3&utm_medium=api_v3_business_search&utm_source=fQEgjgf16LQ5Et2n5ni8xw"}, {"name": "Ottava Nota", "service_type": "caterers", "address": "Via Butera 55 90133 Palermo Italy", "city": "Palermo", "contact": "+390916168601", "hours": "null", "picture_url": "https://s3-media0.fl.yelpcdn.com/bphoto/oYXWvuiMO-sFgX-Atx7k3g/o.jpg", "website": "https://www.yelp.com/biz/ottava-nota-palermo?adjust_creative=fQEgjgf16LQ5Et2n5ni8xw&utm_campaign=yelp_api_v3&utm_medium=api_v3_business_search&utm_source=fQEgjgf16LQ5Et2n5ni8xw"}, {"name": "Le Delizie di Cagliostro", "service_type": "caterers", "address": "Corso Vittorio Emanuele 150 90133 Palermo Italy", "city": "Palermo", "contact": "+39091332818", "hours": "null", "picture_url": "https://s3-media0.fl.yelpcdn.com/bphoto/qgaMHiQ0aKm0R90YzRteMA/o.jpg", "website": "https://www.yelp.com/biz/le-delizie-di-cagliostro-palermo?adjust_creative=fQEgjgf16LQ5Et2n5ni8xw&utm_campaign=yelp_api_v3&utm_medium=api_v3_business_search&utm_source=fQEgjgf16LQ5Et2n5ni8xw"}, {"name": "Kus Kus", "service_type": "caterers", "address": "Piazza Virgilio 9 90141 Palermo Italy", "city": "Palermo", "contact": "+39091586525", "hours": "null", "picture_url": "https://s3-media0.fl.yelpcdn.com/bphoto/EvXT18LD_NSJuos2rv44Ow/o.jpg", "website": "https://www.yelp.com/biz/kus-kus-palermo?adjust_creative=fQEgjgf16LQ5Et2n5ni8xw&utm_campaign=yelp_api_v3&utm_medium=api_v3_business_search&utm_source=fQEgjgf16LQ5Et2n5ni8xw"}, {"name": "Mak Mixology", "service_type": "caterers", "address": "Via Bari 50 90133 Palermo Italy", "city": "Palermo", "contact": "+390916745668", "hours": "null", "picture_url": "https://s3-media0.fl.yelpcdn.com/bphoto/0JfupV-nDQtR65tKwYZ8xQ/o.jpg", "website": "https://www.yelp.com/biz/mak-mixology-palermo?adjust_creative=fQEgjgf16LQ5Et2n5ni8xw&utm_campaign=yelp_api_v3&utm_medium=api_v3_business_search&utm_source=fQEgjgf16LQ5Et2n5ni8xw"}, {"name": "Buatta", "service_type": "caterers", "address": "Via Vittorio Emanuele 176 90133 Palermo Italy", "city": "Palermo", "contact": "+39091322378", "hours": "null", "picture_url": "https://s3-media0.fl.yelpcdn.com/bphoto/vEvwaRUgC9PyuEUH0sYj0A/o.jpg", "website": "https://www.yelp.com/biz/buatta-palermo?adjust_creative=fQEgjgf16LQ5Et2n5ni8xw&utm_campaign=yelp_api_v3&utm_medium=api_v3_business_search&utm_source=fQEgjgf16LQ5Et2n5ni8xw"}, {"name": "MadoniEAT", "service_type": "caterers", "address": "Via Butera 20 90133 Palermo Italy", "city": "Palermo", "contact": "+390917521749", "hours": "null", "picture_url": "https://s3-media0.fl.yelpcdn.com/bphoto/LTSIaOFkVeBrbSXqLxiCWg/o.jpg", "website": "https://www.yelp.com/biz/madonieat-palermo?adjust_creative=fQEgjgf16LQ5Et2n5ni8xw&utm_campaign=yelp_api_v3&utm_medium=api_v3_business_search&utm_source=fQEgjgf16LQ5Et2n5ni8xw"}, {"name": "Pani Ca' Meusa", "service_type": "caterers", "address": "Porta Carbone Via Cala 62 90133 Palermo Italy", "city": "Palermo", "contact": "+3904491323433", "hours": "null", "picture_url": "https://s3-media0.fl.yelpcdn.com/bphoto/ydx7yKnFvS7CAg_RSy-Bbw/o.jpg", "website": "https://www.yelp.com/biz/pani-ca-meusa-palermo?adjust_creative=fQEgjgf16LQ5Et2n5ni8xw&utm_campaign=yelp_api_v3&utm_medium=api_v3_business_search&utm_source=fQEgjgf16LQ5Et2n5ni8xw"}, {"name": "Locale", "service_type": "caterers", "address": "Via Francesco Guardione 88 90139 Palermo Italy", "city": "Palermo", "contact": "+390917932430", "hours": "null", "picture_url": "https://s3-media0.fl.yelpcdn.com/bphoto/FE_zIsNYEReywog5Kk7uMg/o.jpg", "website": "https://www.yelp.com/biz/locale-palermo-3?adjust_creative=fQEgjgf16LQ5Et2n5ni8xw&utm_campaign=yelp_api_v3&utm_medium=api_v3_business_search&utm_source=fQEgjgf16LQ5Et2n5ni8xw"}, {"name": "Bar Touring", "service_type": "caterers", "address": "Via A de Gasperi 237 90144 Palermo Italy", "city": "Palermo", "contact": "+39091517682", "hours": "null", "picture_url": "https://s3-media0.fl.yelpcdn.com/bphoto/HDx4psfV3CRVjUQoOnfxRQ/o.jpg", "website": "https://www.yelp.com/biz/bar-touring-palermo-3?adjust_creative=fQEgjgf16LQ5Et2n5ni8xw&utm_campaign=yelp_api_v3&utm_medium=api_v3_business_search&utm_source=fQEgjgf16LQ5Et2n5ni8xw"}, {"name": "Osteria Proseccheria Mercede", "service_type": "caterers", "address": "Via Pignatelli Aragona 52 90138 Palermo Italy", "city": "Palermo", "contact": "+39091332243", "hours": "null", "picture_url": "https://s3-media0.fl.yelpcdn.com/bphoto/ve-OZZXV_p4M0NqYLu97aQ/o.jpg", "website": "https://www.yelp.com/biz/osteria-proseccheria-mercede-palermo?adjust_creative=fQEgjgf16LQ5Et2n5ni8xw&utm_campaign=yelp_api_v3&utm_medium=api_v3_business_search&utm_source=fQEgjgf16LQ5Et2n5ni8xw"}, {"name": "Pizza e Cucina", "service_type": "caterers", "address": "Via XX Settembre 65A 90141 Palermo Italy", "city": "Palermo", "contact": "+390918876790", "hours": "null", "picture_url": "https://s3-media0.fl.yelpcdn.com/bphoto/96MCxIeWmsovLFsCr-VYlQ/o.jpg", "website": "https://www.yelp.com/biz/pizza-e-cucina-palermo?adjust_creative=fQEgjgf16LQ5Et2n5ni8xw&utm_campaign=yelp_api_v3&utm_medium=api_v3_business_search&utm_source=fQEgjgf16LQ5Et2n5ni8xw"}, {"name": "Catacombe dei Cappuccini", "service_type": "caterers", "address": "Piazza Cappuccini 1 90129 Palermo Italy", "city": "Palermo", "contact": "+390916527389", "hours": "null", "picture_url": "https://s3-media0.fl.yelpcdn.com/bphoto/5LCIwLqLKNpW0x2nRsUiEg/o.jpg", "website": "https://www.yelp.com/biz/catacombe-dei-cappuccini-palermo?adjust_creative=fQEgjgf16LQ5Et2n5ni8xw&utm_campaign=yelp_api_v3&utm_medium=api_v3_business_search&utm_source=fQEgjgf16LQ5Et2n5ni8xw"}, {"name": "Il Signor di Carbognano", "service_type": "caterers", "address": "Via Notarbartolo 2C 90141 Palermo Italy", "city": "Palermo", "contact": "+390916258983", "hours": "null", "picture_url": "https://s3-media0.fl.yelpcdn.com/bphoto/sI7pZ0UBDnki_R9S-1OZUw/o.jpg", "website": "https://www.yelp.com/biz/il-signor-di-carbognano-palermo?adjust_creative=fQEgjgf16LQ5Et2n5ni8xw&utm_campaign=yelp_api_v3&utm_medium=api_v3_business_search&utm_source=fQEgjgf16LQ5Et2n5ni8xw"}, {"name": "Osteria Lo Bianco", "service_type": "caterers", "address": "Via Emerico Amari 104 90139 Palermo Italy", "city": "Palermo", "contact": "+390912514906", "hours": "null", "picture_url": "https://s3-media0.fl.yelpcdn.com/bphoto/6_Jogi83T24jjSHAM8knVg/o.jpg", "website": "https://www.yelp.com/biz/osteria-lo-bianco-palermo-5?adjust_creative=fQEgjgf16LQ5Et2n5ni8xw&utm_campaign=yelp_api_v3&utm_medium=api_v3_business_search&utm_source=fQEgjgf16LQ5Et2n5ni8xw"}, {"name": "Tribeca", "service_type": "caterers", "address": "via Mariano Stabile Palermo Italy", "city": "Palermo", "contact": "", "hours": "null", "picture_url": "https://s3-media0.fl.yelpcdn.com/bphoto/rpI79nFFvvdllCcjpgdt4Q/o.jpg", "website": "https://www.yelp.com/biz/tribeca-palermo?adjust_creative=fQEgjgf16LQ5Et2n5ni8xw&utm_campaign=yelp_api_v3&utm_medium=api_v3_business_search&utm_source=fQEgjgf16LQ5Et2n5ni8xw"}, {"name": "Bioesser\u00ec", "service_type": "caterers", "address": "Via Giuseppe la Farina 4 90141 Palermo Italy", "city": "Palermo", "contact": "+390917657142", "hours": "null", "picture_url": "", "website": "https://www.yelp.com/biz/bioesser%C3%AC-palermo-2?adjust_creative=fQEgjgf16LQ5Et2n5ni8xw&utm_campaign=yelp_api_v3&utm_medium=api_v3_business_search&utm_source=fQEgjgf16LQ5Et2n5ni8xw"}, {"name": "Taverna dei Canti", "service_type": "caterers", "address": "Via Maqueda 229 90133 Palermo Italy", "city": "Palermo", "contact": "+390917521311", "hours": "null", "picture_url": "https://s3-media0.fl.yelpcdn.com/bphoto/TxTXSKVWESaItdtwUlj5LQ/o.jpg", "website": "https://www.yelp.com/biz/taverna-dei-canti-palermo?adjust_creative=fQEgjgf16LQ5Et2n5ni8xw&utm_campaign=yelp_api_v3&utm_medium=api_v3_business_search&utm_source=fQEgjgf16LQ5Et2n5ni8xw"}, {"name": "Trattoria Altri Tempi", "service_type": "caterers", "address": "Via Sammartino 65 90141 Palermo Italy", "city": "Palermo", "contact": "+39091323480", "hours": "null", "picture_url": "https://s3-media0.fl.yelpcdn.com/bphoto/yflZF0C5Mw7x1X_pHO_9BQ/o.jpg", "website": "https://www.yelp.com/biz/trattoria-altri-tempi-palermo?adjust_creative=fQEgjgf16LQ5Et2n5ni8xw&utm_campaign=yelp_api_v3&utm_medium=api_v3_business_search&utm_source=fQEgjgf16LQ5Et2n5ni8xw"}, {"name": "Cappello Salvatore", "service_type": "caterers", "address": "Via Colonna Rotta 68 90134 Palermo Italy", "city": "Palermo", "contact": "+39091489601", "hours": "null", "picture_url": "https://s3-media0.fl.yelpcdn.com/bphoto/W-qKQPf5b6Q_xNCaYBI56Q/o.jpg", "website": "https://www.yelp.com/biz/cappello-salvatore-palermo?adjust_creative=fQEgjgf16LQ5Et2n5ni8xw&utm_campaign=yelp_api_v3&utm_medium=api_v3_business_search&utm_source=fQEgjgf16LQ5Et2n5ni8xw"}, {"name": "Mud\u00f9", "service_type": "caterers", "address": "Via Enrico Albanese 24 90139 Palermo Italy", "city": "Palermo", "contact": "+390916257228", "hours": "null", "picture_url": "https://s3-media0.fl.yelpcdn.com/bphoto/jMUJH1DE01puLN3xLdEoJQ/o.jpg", "website": "https://www.yelp.com/biz/mud%C3%B9-palermo-2?adjust_creative=fQEgjgf16LQ5Et2n5ni8xw&utm_campaign=yelp_api_v3&utm_medium=api_v3_business_search&utm_source=fQEgjgf16LQ5Et2n5ni8xw"}, {"name": "Osteria dei Vespri", "service_type": "caterers", "address": "Piazza Croce dei Vespri 6 90133 Palermo Italy", "city": "Palermo", "contact": "", "hours": "null", "picture_url": "https://s3-media0.fl.yelpcdn.com/bphoto/Yztxr7zrattjHP28N9FTzw/o.jpg", "website": "https://www.yelp.com/biz/osteria-dei-vespri-palermo?adjust_creative=fQEgjgf16LQ5Et2n5ni8xw&utm_campaign=yelp_api_v3&utm_medium=api_v3_business_search&utm_source=fQEgjgf16LQ5Et2n5ni8xw"}, {"name": "I Cuochini", "service_type": "caterers", "address": "Via Settimo Ruggero 68 90139 Palermo Italy", "city": "Palermo", "contact": "+39091581158", "hours": "null", "picture_url": "https://s3-media0.fl.yelpcdn.com/bphoto/e69QhJrX1nqT_6eLMrN6Eg/o.jpg", "website": "https://www.yelp.com/biz/i-cuochini-palermo?adjust_creative=fQEgjgf16LQ5Et2n5ni8xw&utm_campaign=yelp_api_v3&utm_medium=api_v3_business_search&utm_source=fQEgjgf16LQ5Et2n5ni8xw"}, {"name": "Kuaizi", "service_type": "caterers", "address": "Via Emerico Amari 57A 90139 Palermo Italy", "city": "Palermo", "contact": "+39091331602", "hours": "null", "picture_url": "https://s3-media0.fl.yelpcdn.com/bphoto/1xgb1fb9GGwh8mgKfLn3hA/o.jpg", "website": "https://www.yelp.com/biz/kuaizi-palermo?adjust_creative=fQEgjgf16LQ5Et2n5ni8xw&utm_campaign=yelp_api_v3&utm_medium=api_v3_business_search&utm_source=fQEgjgf16LQ5Et2n5ni8xw"}, {"name": "Costa", "service_type": "caterers", "address": "Via Maqueda 174 90133 Palermo Italy", "city": "Palermo", "contact": "+390919807927", "hours": "null", "picture_url": "https://s3-media0.fl.yelpcdn.com/bphoto/9NeUmGOyRLvP9aX1jQm5sg/o.jpg", "website": "https://www.yelp.com/biz/costa-palermo-2?adjust_creative=fQEgjgf16LQ5Et2n5ni8xw&utm_campaign=yelp_api_v3&utm_medium=api_v3_business_search&utm_source=fQEgjgf16LQ5Et2n5ni8xw"}, {"name": "Osteria al Casareccio", "service_type": "caterers", "address": "Via Maccherronai 47 90133 Palermo Italy", "city": "Palermo", "contact": "+390912713912", "hours": "null", "picture_url": "https://s3-media0.fl.yelpcdn.com/bphoto/syzYyOEI2meTHHaH6qb27g/o.jpg", "website": "https://www.yelp.com/biz/osteria-al-casareccio-palermo?adjust_creative=fQEgjgf16LQ5Et2n5ni8xw&utm_campaign=yelp_api_v3&utm_medium=api_v3_business_search&utm_source=fQEgjgf16LQ5Et2n5ni8xw"}, {"name": "Frida Pizzeria", "service_type": "event_venues", "address": "Piazza Sant'Onofrio 37 90134 Palermo Italy", "city": "Palermo", "contact": "+390915505440", "hours": "null", "picture_url": "https://s3-media0.fl.yelpcdn.com/bphoto/RSd_JQkGi70MNrdyZvTFvw/o.jpg", "website": "https://www.yelp.com/biz/frida-pizzeria-palermo-2?adjust_creative=fQEgjgf16LQ5Et2n5ni8xw&utm_campaign=yelp_api_v3&utm_medium=api_v3_business_search&utm_source=fQEgjgf16LQ5Et2n5ni8xw"}, {"name": "La Corte dei Mangioni", "service_type": "event_venues", "address": "Via Sammartino 97 90141 Palermo Italy", "city": "Palermo", "contact": "+390916255360", "hours": "null", "picture_url": "https://s3-media0.fl.yelpcdn.com/bphoto/VCRhOff0qJguWYIxImIRiQ/o.jpg", "website": "https://www.yelp.com/biz/la-corte-dei-mangioni-palermo-2?adjust_creative=fQEgjgf16LQ5Et2n5ni8xw&utm_campaign=yelp_api_v3&utm_medium=api_v3_business_search&utm_source=fQEgjgf16LQ5Et2n5ni8xw"}, {"name": "I Cucci", "service_type": "event_venues", "address": "Piazza Bologni 3 90134 Palermo Italy", "city": "Palermo", "contact": "+390917477151", "hours": "null", "picture_url": "https://s3-media0.fl.yelpcdn.com/bphoto/BPWOKI9N4xWbFTKEfVk2Qw/o.jpg", "website": "https://www.yelp.com/biz/i-cucci-palermo?adjust_creative=fQEgjgf16LQ5Et2n5ni8xw&utm_campaign=yelp_api_v3&utm_medium=api_v3_business_search&utm_source=fQEgjgf16LQ5Et2n5ni8xw"}, {"name": "Ristorante PRIMI PIATTI", "service_type": "event_venues", "address": "Vicolo San Giuseppe 2/c 90134 Palermo Italy", "city": "Palermo", "contact": "+390916111110", "hours": "null", "picture_url": "https://s3-media0.fl.yelpcdn.com/bphoto/szqP582jgmykWqJXV0BiPA/o.jpg", "website": "https://www.yelp.com/biz/ristorante-primi-piatti-palermo-4?adjust_creative=fQEgjgf16LQ5Et2n5ni8xw&utm_campaign=yelp_api_v3&utm_medium=api_v3_business_search&utm_source=fQEgjgf16LQ5Et2n5ni8xw"}, {"name": "Ferro di Cavallo", "service_type": "event_venues", "address": "Via Venezia 20 90133 Palermo Italy", "city": "Palermo", "contact": "+39091331835", "hours": "null", "picture_url": "https://s3-media0.fl.yelpcdn.com/bphoto/AZiytdDJSPgLZfPlY4C5uA/o.jpg", "website": "https://www.yelp.com/biz/ferro-di-cavallo-palermo?adjust_creative=fQEgjgf16LQ5Et2n5ni8xw&utm_campaign=yelp_api_v3&utm_medium=api_v3_business_search&utm_source=fQEgjgf16LQ5Et2n5ni8xw"}, {"name": "La Galleria", "service_type": "event_venues", "address": "Piazza Sett'Angeli 3 90134 Palermo Italy", "city": "Palermo", "contact": "+393299815433", "hours": "null", "picture_url": "https://s3-media0.fl.yelpcdn.com/bphoto/nl-AS6eE3AF01Qpwnl_ysw/o.jpg", "website": "https://www.yelp.com/biz/la-galleria-palermo?adjust_creative=fQEgjgf16LQ5Et2n5ni8xw&utm_campaign=yelp_api_v3&utm_medium=api_v3_business_search&utm_source=fQEgjgf16LQ5Et2n5ni8xw"}, {"name": "Antica Focacceria San Francesco", "service_type": "event_venues", "address": "Via Alessandro Paternostro 58 90133 Palermo Italy", "city": "Palermo", "contact": "+39091320264", "hours": "null", "picture_url": "https://s3-media0.fl.yelpcdn.com/bphoto/LyYW8HjsZK-UYkMe-PnjHA/o.jpg", "website": "https://www.yelp.com/biz/antica-focacceria-san-francesco-palermo?adjust_creative=fQEgjgf16LQ5Et2n5ni8xw&utm_campaign=yelp_api_v3&utm_medium=api_v3_business_search&utm_source=fQEgjgf16LQ5Et2n5ni8xw"}, {"name": "Caff\u00e8 Pasticceria Spinnato", "service_type": "event_venues", "address": "Via Principe di Belmonte 111 90139 Palermo Italy", "city": "Palermo", "contact": "+390917495104", "hours": "null", "picture_url": "https://s3-media0.fl.yelpcdn.com/bphoto/qk0Bg09XAaDebzSRi4I08g/o.jpg", "website": "https://www.yelp.com/biz/caff%C3%A8-pasticceria-spinnato-palermo-2?adjust_creative=fQEgjgf16LQ5Et2n5ni8xw&utm_campaign=yelp_api_v3&utm_medium=api_v3_business_search&utm_source=fQEgjgf16LQ5Et2n5ni8xw"}, {"name": "Giada", "service_type": "event_venues", "address": "Via Principe di Belmonte 64 90139 Palermo Italy", "city": "Palermo", "contact": "+39091331860", "hours": "null", "picture_url": "https://s3-media0.fl.yelpcdn.com/bphoto/tLBIQCCIKdIiEqRWJQaDJA/o.jpg", "website": "https://www.yelp.com/biz/giada-palermo?adjust_creative=fQEgjgf16LQ5Et2n5ni8xw&utm_campaign=yelp_api_v3&utm_medium=api_v3_business_search&utm_source=fQEgjgf16LQ5Et2n5ni8xw"}, {"name": "Bisso", "service_type": "event_venues", "address": "Via Maqueda 172A 90133 Palermo Italy", "city": "Palermo", "contact": "+393281314595", "hours": "null", "picture_url": "https://s3-media0.fl.yelpcdn.com/bphoto/9NIqzR6PHdSFAO-EjEnL9g/o.jpg", "website": "https://www.yelp.com/biz/bisso-palermo?adjust_creative=fQEgjgf16LQ5Et2n5ni8xw&utm_campaign=yelp_api_v3&utm_medium=api_v3_business_search&utm_source=fQEgjgf16LQ5Et2n5ni8xw"}, {"name": "Casa del Brodo", "service_type": "event_venues", "address": "Via Vittorio Emanuele 175 90133 Palermo Italy", "city": "Palermo", "contact": "+39091321655", "hours": "null", "picture_url": "https://s3-media0.fl.yelpcdn.com/bphoto/ubKT0i5Rmzyyri5G7pyBrg/o.jpg", "website": "https://www.yelp.com/biz/casa-del-brodo-palermo?adjust_creative=fQEgjgf16LQ5Et2n5ni8xw&utm_campaign=yelp_api_v3&utm_medium=api_v3_business_search&utm_source=fQEgjgf16LQ5Et2n5ni8xw"}, {"name": "Da Bacco", "service_type": "event_venues", "address": "Via Orologio 29 90133 Palermo Italy", "city": "Palermo", "contact": "+393663963395", "hours": "null", "picture_url": "https://s3-media0.fl.yelpcdn.com/bphoto/Ezog2zysva1scbPwtBg6eQ/o.jpg", "website": "https://www.yelp.com/biz/da-bacco-palermo?adjust_creative=fQEgjgf16LQ5Et2n5ni8xw&utm_campaign=yelp_api_v3&utm_medium=api_v3_business_search&utm_source=fQEgjgf16LQ5Et2n5ni8xw"}, {"name": "Osteria Ballaro", "service_type": "event_venues", "address": "Via Calascibetta, 25 Pa 90133 Palermo Italy", "city": "Palermo", "contact": "+390917910184", "hours": "null", "picture_url": "https://s3-media0.fl.yelpcdn.com/bphoto/gNRlbLFTwJdjnpp_LXMOQg/o.jpg", "website": "https://www.yelp.com/biz/osteria-ballaro-palermo?adjust_creative=fQEgjgf16LQ5Et2n5ni8xw&utm_campaign=yelp_api_v3&utm_medium=api_v3_business_search&utm_source=fQEgjgf16LQ5Et2n5ni8xw"}, {"name": "CIN CIN", "service_type": "event_venues", "address": "Via Daniele Manin 22 90139 Palermo Italy", "city": "Palermo", "contact": "+390916112038", "hours": "null", "picture_url": "https://s3-media0.fl.yelpcdn.com/bphoto/vhjxk-9VtgfgrmeMDvoGdg/o.jpg", "website": "https://www.yelp.com/biz/cin-cin-palermo?adjust_creative=fQEgjgf16LQ5Et2n5ni8xw&utm_campaign=yelp_api_v3&utm_medium=api_v3_business_search&utm_source=fQEgjgf16LQ5Et2n5ni8xw"}, {"name": "Piccolo Napoli", "service_type": "event_venues", "address": "Piazzetta Mulino a Vento 4 90139 Palermo Italy", "city": "Palermo", "contact": "+39091320431", "hours": "null", "picture_url": "https://s3-media0.fl.yelpcdn.com/bphoto/6aw4-DHZIbu9n9GitT2Yew/o.jpg", "website": "https://www.yelp.com/biz/piccolo-napoli-palermo?adjust_creative=fQEgjgf16LQ5Et2n5ni8xw&utm_campaign=yelp_api_v3&utm_medium=api_v3_business_search&utm_source=fQEgjgf16LQ5Et2n5ni8xw"}, {"name": "Cattedrale di Palermo", "service_type": "event_venues", "address": "Via Vittorio Emanuele 90040 Palermo Italy", "city": "Palermo", "contact": "+39091334373", "hours": "null", "picture_url": "https://s3-media0.fl.yelpcdn.com/bphoto/RPWbKJBBI90uUZxKGoElnw/o.jpg", "website": "https://www.yelp.com/biz/cattedrale-di-palermo-palermo?adjust_creative=fQEgjgf16LQ5Et2n5ni8xw&utm_campaign=yelp_api_v3&utm_medium=api_v3_business_search&utm_source=fQEgjgf16LQ5Et2n5ni8xw"}, {"name": "La Duchessa", "service_type": "event_venues", "address": "Via Principe di Belmonte 69 90100 Palermo Italy", "city": "Palermo", "contact": "+390915086896", "hours": "null", "picture_url": "https://s3-media0.fl.yelpcdn.com/bphoto/gbgnxC3pYv4XNdx_YC83SQ/o.jpg", "website": "https://www.yelp.com/biz/la-duchessa-palermo?adjust_creative=fQEgjgf16LQ5Et2n5ni8xw&utm_campaign=yelp_api_v3&utm_medium=api_v3_business_search&utm_source=fQEgjgf16LQ5Et2n5ni8xw"}, {"name": "FUD", "service_type": "event_venues", "address": "Piazza Olivella 4 90133 Palermo Italy", "city": "Palermo", "contact": "+390916112184", "hours": "null", "picture_url": "https://s3-media0.fl.yelpcdn.com/bphoto/S4A_xe30hM-4LnCLDJEeWQ/o.jpg", "website": "https://www.yelp.com/biz/fud-palermo?adjust_creative=fQEgjgf16LQ5Et2n5ni8xw&utm_campaign=yelp_api_v3&utm_medium=api_v3_business_search&utm_source=fQEgjgf16LQ5Et2n5ni8xw"}, {"name": "Sal Capone SushiClub", "service_type": "event_venues", "address": "Via Catania,44 90141 Palermo Italy", "city": "Palermo", "contact": "+390916258285", "hours": "null", "picture_url": "https://s3-media0.fl.yelpcdn.com/bphoto/a5N8xtH8y6elEAJ3--TkTg/o.jpg", "website": "https://www.yelp.com/biz/sal-capone-sushiclub-palermo-2?adjust_creative=fQEgjgf16LQ5Et2n5ni8xw&utm_campaign=yelp_api_v3&utm_medium=api_v3_business_search&utm_source=fQEgjgf16LQ5Et2n5ni8xw"}, {"name": "Mangia & Bevi", "service_type": "event_venues", "address": "Largo cavalieri di Malta 18 90133 Palermo Italy", "city": "Palermo", "contact": "+390915073943", "hours": "null", "picture_url": "https://s3-media0.fl.yelpcdn.com/bphoto/-V4-nsQ4OZMzecrWit0ldA/o.jpg", "website": "https://www.yelp.com/biz/mangia-e-bevi-palermo?adjust_creative=fQEgjgf16LQ5Et2n5ni8xw&utm_campaign=yelp_api_v3&utm_medium=api_v3_business_search&utm_source=fQEgjgf16LQ5Et2n5ni8xw"}, {"name": "Trattoria Biondo", "service_type": "event_venues", "address": "Via Giosue' Carducci 15 90141 Palermo Italy", "city": "Palermo", "contact": "+39091583662", "hours": "null", "picture_url": "https://s3-media0.fl.yelpcdn.com/bphoto/X_l7nBZwG7tN4mGnIktPrg/o.jpg", "website": "https://www.yelp.com/biz/trattoria-biondo-palermo?adjust_creative=fQEgjgf16LQ5Et2n5ni8xw&utm_campaign=yelp_api_v3&utm_medium=api_v3_business_search&utm_source=fQEgjgf16LQ5Et2n5ni8xw"}, {"name": "Nni Franco 'u Vastiddaru", "service_type": "event_venues", "address": "Via Vittorio Emanuele 102 90133 Palermo Italy", "city": "Palermo", "contact": "+39091325987", "hours": "null", "picture_url": "https://s3-media0.fl.yelpcdn.com/bphoto/lu4dYowix6-rMDqi7kUCcQ/o.jpg", "website": "https://www.yelp.com/biz/nni-franco-u-vastiddaru-palermo?adjust_creative=fQEgjgf16LQ5Et2n5ni8xw&utm_campaign=yelp_api_v3&utm_medium=api_v3_business_search&utm_source=fQEgjgf16LQ5Et2n5ni8xw"}, {"name": "Arancina D'Autore", "service_type": "event_venues", "address": "Via Maqueda 270 90133 Palermo Italy", "city": "Palermo", "contact": "+390916112009", "hours": "null", "picture_url": "https://s3-media0.fl.yelpcdn.com/bphoto/Ah9JeSgUD6ejy4HEGZtK2Q/o.jpg", "website": "https://www.yelp.com/biz/arancina-d-autore-palermo?adjust_creative=fQEgjgf16LQ5Et2n5ni8xw&utm_campaign=yelp_api_v3&utm_medium=api_v3_business_search&utm_source=fQEgjgf16LQ5Et2n5ni8xw"}, {"name": "Ke Palle", "service_type": "event_venues", "address": "Via Terrasanta 111 90141 Palermo Italy", "city": "Palermo", "contact": "", "hours": "null", "picture_url": "https://s3-media0.fl.yelpcdn.com/bphoto/8U7ULq-63KN_9IYdEsGq9A/o.jpg", "website": "https://www.yelp.com/biz/ke-palle-palermo?adjust_creative=fQEgjgf16LQ5Et2n5ni8xw&utm_campaign=yelp_api_v3&utm_medium=api_v3_business_search&utm_source=fQEgjgf16LQ5Et2n5ni8xw"}, {"name": "Antica Trattoria Pizzeria Enzo", "service_type": "event_venues", "address": "Via Maurolico 17 90127 Palermo Italy", "city": "Palermo", "contact": "+390916163854", "hours": "null", "picture_url": "https://s3-media0.fl.yelpcdn.com/bphoto/yTY1QF4D1HT6s_N6S7RZjg/o.jpg", "website": "https://www.yelp.com/biz/antica-trattoria-pizzeria-enzo-palermo?adjust_creative=fQEgjgf16LQ5Et2n5ni8xw&utm_campaign=yelp_api_v3&utm_medium=api_v3_business_search&utm_source=fQEgjgf16LQ5Et2n5ni8xw"}, {"name": "Ottava Nota", "service_type": "event_venues", "address": "Via Butera 55 90133 Palermo Italy", "city": "Palermo", "contact": "+390916168601", "hours": "null", "picture_url": "https://s3-media0.fl.yelpcdn.com/bphoto/oYXWvuiMO-sFgX-Atx7k3g/o.jpg", "website": "https://www.yelp.com/biz/ottava-nota-palermo?adjust_creative=fQEgjgf16LQ5Et2n5ni8xw&utm_campaign=yelp_api_v3&utm_medium=api_v3_business_search&utm_source=fQEgjgf16LQ5Et2n5ni8xw"}, {"name": "Le Delizie di Cagliostro", "service_type": "event_venues", "address": "Corso Vittorio Emanuele 150 90133 Palermo Italy", "city": "Palermo", "contact": "+39091332818", "hours": "null", "picture_url": "https://s3-media0.fl.yelpcdn.com/bphoto/qgaMHiQ0aKm0R90YzRteMA/o.jpg", "website": "https://www.yelp.com/biz/le-delizie-di-cagliostro-palermo?adjust_creative=fQEgjgf16LQ5Et2n5ni8xw&utm_campaign=yelp_api_v3&utm_medium=api_v3_business_search&utm_source=fQEgjgf16LQ5Et2n5ni8xw"}, {"name": "Kus Kus", "service_type": "event_venues", "address": "Piazza Virgilio 9 90141 Palermo Italy", "city": "Palermo", "contact": "+39091586525", "hours": "null", "picture_url": "https://s3-media0.fl.yelpcdn.com/bphoto/EvXT18LD_NSJuos2rv44Ow/o.jpg", "website": "https://www.yelp.com/biz/kus-kus-palermo?adjust_creative=fQEgjgf16LQ5Et2n5ni8xw&utm_campaign=yelp_api_v3&utm_medium=api_v3_business_search&utm_source=fQEgjgf16LQ5Et2n5ni8xw"}, {"name": "Mak Mixology", "service_type": "event_venues", "address": "Via Bari 50 90133 Palermo Italy", "city": "Palermo", "contact": "+390916745668", "hours": "null", "picture_url": "https://s3-media0.fl.yelpcdn.com/bphoto/0JfupV-nDQtR65tKwYZ8xQ/o.jpg", "website": "https://www.yelp.com/biz/mak-mixology-palermo?adjust_creative=fQEgjgf16LQ5Et2n5ni8xw&utm_campaign=yelp_api_v3&utm_medium=api_v3_business_search&utm_source=fQEgjgf16LQ5Et2n5ni8xw"}, {"name": "Buatta", "service_type": "event_venues", "address": "Via Vittorio Emanuele 176 90133 Palermo Italy", "city": "Palermo", "contact": "+39091322378", "hours": "null", "picture_url": "https://s3-media0.fl.yelpcdn.com/bphoto/vEvwaRUgC9PyuEUH0sYj0A/o.jpg", "website": "https://www.yelp.com/biz/buatta-palermo?adjust_creative=fQEgjgf16LQ5Et2n5ni8xw&utm_campaign=yelp_api_v3&utm_medium=api_v3_business_search&utm_source=fQEgjgf16LQ5Et2n5ni8xw"}, {"name": "MadoniEAT", "service_type": "event_venues", "address": "Via Butera 20 90133 Palermo Italy", "city": "Palermo", "contact": "+390917521749", "hours": "null", "picture_url": "https://s3-media0.fl.yelpcdn.com/bphoto/LTSIaOFkVeBrbSXqLxiCWg/o.jpg", "website": "https://www.yelp.com/biz/madonieat-palermo?adjust_creative=fQEgjgf16LQ5Et2n5ni8xw&utm_campaign=yelp_api_v3&utm_medium=api_v3_business_search&utm_source=fQEgjgf16LQ5Et2n5ni8xw"}, {"name": "Pani Ca' Meusa", "service_type": "event_venues", "address": "Porta Carbone Via Cala 62 90133 Palermo Italy", "city": "Palermo", "contact": "+3904491323433", "hours": "null", "picture_url": "https://s3-media0.fl.yelpcdn.com/bphoto/ydx7yKnFvS7CAg_RSy-Bbw/o.jpg", "website": "https://www.yelp.com/biz/pani-ca-meusa-palermo?adjust_creative=fQEgjgf16LQ5Et2n5ni8xw&utm_campaign=yelp_api_v3&utm_medium=api_v3_business_search&utm_source=fQEgjgf16LQ5Et2n5ni8xw"}, {"name": "Locale", "service_type": "event_venues", "address": "Via Francesco Guardione 88 90139 Palermo Italy", "city": "Palermo", "contact": "+390917932430", "hours": "null", "picture_url": "https://s3-media0.fl.yelpcdn.com/bphoto/FE_zIsNYEReywog5Kk7uMg/o.jpg", "website": "https://www.yelp.com/biz/locale-palermo-3?adjust_creative=fQEgjgf16LQ5Et2n5ni8xw&utm_campaign=yelp_api_v3&utm_medium=api_v3_business_search&utm_source=fQEgjgf16LQ5Et2n5ni8xw"}, {"name": "Bar Touring", "service_type": "event_venues", "address": "Via A de Gasperi 237 90144 Palermo Italy", "city": "Palermo", "contact": "+39091517682", "hours": "null", "picture_url": "https://s3-media0.fl.yelpcdn.com/bphoto/HDx4psfV3CRVjUQoOnfxRQ/o.jpg", "website": "https://www.yelp.com/biz/bar-touring-palermo-3?adjust_creative=fQEgjgf16LQ5Et2n5ni8xw&utm_campaign=yelp_api_v3&utm_medium=api_v3_business_search&utm_source=fQEgjgf16LQ5Et2n5ni8xw"}, {"name": "Osteria Proseccheria Mercede", "service_type": "event_venues", "address": "Via Pignatelli Aragona 52 90138 Palermo Italy", "city": "Palermo", "contact": "+39091332243", "hours": "null", "picture_url": "https://s3-media0.fl.yelpcdn.com/bphoto/ve-OZZXV_p4M0NqYLu97aQ/o.jpg", "website": "https://www.yelp.com/biz/osteria-proseccheria-mercede-palermo?adjust_creative=fQEgjgf16LQ5Et2n5ni8xw&utm_campaign=yelp_api_v3&utm_medium=api_v3_business_search&utm_source=fQEgjgf16LQ5Et2n5ni8xw"}, {"name": "Pizza e Cucina", "service_type": "event_venues", "address": "Via XX Settembre 65A 90141 Palermo Italy", "city": "Palermo", "contact": "+390918876790", "hours": "null", "picture_url": "https://s3-media0.fl.yelpcdn.com/bphoto/96MCxIeWmsovLFsCr-VYlQ/o.jpg", "website": "https://www.yelp.com/biz/pizza-e-cucina-palermo?adjust_creative=fQEgjgf16LQ5Et2n5ni8xw&utm_campaign=yelp_api_v3&utm_medium=api_v3_business_search&utm_source=fQEgjgf16LQ5Et2n5ni8xw"}, {"name": "Catacombe dei Cappuccini", "service_type": "event_venues", "address": "Piazza Cappuccini 1 90129 Palermo Italy", "city": "Palermo", "contact": "+390916527389", "hours": "null", "picture_url": "https://s3-media0.fl.yelpcdn.com/bphoto/5LCIwLqLKNpW0x2nRsUiEg/o.jpg", "website": "https://www.yelp.com/biz/catacombe-dei-cappuccini-palermo?adjust_creative=fQEgjgf16LQ5Et2n5ni8xw&utm_campaign=yelp_api_v3&utm_medium=api_v3_business_search&utm_source=fQEgjgf16LQ5Et2n5ni8xw"}, {"name": "Il Signor di Carbognano", "service_type": "event_venues", "address": "Via Notarbartolo 2C 90141 Palermo Italy", "city": "Palermo", "contact": "+390916258983", "hours": "null", "picture_url": "https://s3-media0.fl.yelpcdn.com/bphoto/sI7pZ0UBDnki_R9S-1OZUw/o.jpg", "website": "https://www.yelp.com/biz/il-signor-di-carbognano-palermo?adjust_creative=fQEgjgf16LQ5Et2n5ni8xw&utm_campaign=yelp_api_v3&utm_medium=api_v3_business_search&utm_source=fQEgjgf16LQ5Et2n5ni8xw"}, {"name": "Osteria Lo Bianco", "service_type": "event_venues", "address": "Via Emerico Amari 104 90139 Palermo Italy", "city": "Palermo", "contact": "+390912514906", "hours": "null", "picture_url": "https://s3-media0.fl.yelpcdn.com/bphoto/6_Jogi83T24jjSHAM8knVg/o.jpg", "website": "https://www.yelp.com/biz/osteria-lo-bianco-palermo-5?adjust_creative=fQEgjgf16LQ5Et2n5ni8xw&utm_campaign=yelp_api_v3&utm_medium=api_v3_business_search&utm_source=fQEgjgf16LQ5Et2n5ni8xw"}, {"name": "Tribeca", "service_type": "event_venues", "address": "via Mariano Stabile Palermo Italy", "city": "Palermo", "contact": "", "hours": "null", "picture_url": "https://s3-media0.fl.yelpcdn.com/bphoto/rpI79nFFvvdllCcjpgdt4Q/o.jpg", "website": "https://www.yelp.com/biz/tribeca-palermo?adjust_creative=fQEgjgf16LQ5Et2n5ni8xw&utm_campaign=yelp_api_v3&utm_medium=api_v3_business_search&utm_source=fQEgjgf16LQ5Et2n5ni8xw"}, {"name": "Bioesser\u00ec", "service_type": "event_venues", "address": "Via Giuseppe la Farina 4 90141 Palermo Italy", "city": "Palermo", "contact": "+390917657142", "hours": "null", "picture_url": "", "website": "https://www.yelp.com/biz/bioesser%C3%AC-palermo-2?adjust_creative=fQEgjgf16LQ5Et2n5ni8xw&utm_campaign=yelp_api_v3&utm_medium=api_v3_business_search&utm_source=fQEgjgf16LQ5Et2n5ni8xw"}, {"name": "Taverna dei Canti", "service_type": "event_venues", "address": "Via Maqueda 229 90133 Palermo Italy", "city": "Palermo", "contact": "+390917521311", "hours": "null", "picture_url": "https://s3-media0.fl.yelpcdn.com/bphoto/TxTXSKVWESaItdtwUlj5LQ/o.jpg", "website": "https://www.yelp.com/biz/taverna-dei-canti-palermo?adjust_creative=fQEgjgf16LQ5Et2n5ni8xw&utm_campaign=yelp_api_v3&utm_medium=api_v3_business_search&utm_source=fQEgjgf16LQ5Et2n5ni8xw"}, {"name": "Trattoria Altri Tempi", "service_type": "event_venues", "address": "Via Sammartino 65 90141 Palermo Italy", "city": "Palermo", "contact": "+39091323480", "hours": "null", "picture_url": "https://s3-media0.fl.yelpcdn.com/bphoto/yflZF0C5Mw7x1X_pHO_9BQ/o.jpg", "website": "https://www.yelp.com/biz/trattoria-altri-tempi-palermo?adjust_creative=fQEgjgf16LQ5Et2n5ni8xw&utm_campaign=yelp_api_v3&utm_medium=api_v3_business_search&utm_source=fQEgjgf16LQ5Et2n5ni8xw"}, {"name": "Cappello Salvatore", "service_type": "event_venues", "address": "Via Colonna Rotta 68 90134 Palermo Italy", "city": "Palermo", "contact": "+39091489601", "hours": "null", "picture_url": "https://s3-media0.fl.yelpcdn.com/bphoto/W-qKQPf5b6Q_xNCaYBI56Q/o.jpg", "website": "https://www.yelp.com/biz/cappello-salvatore-palermo?adjust_creative=fQEgjgf16LQ5Et2n5ni8xw&utm_campaign=yelp_api_v3&utm_medium=api_v3_business_search&utm_source=fQEgjgf16LQ5Et2n5ni8xw"}, {"name": "Mud\u00f9", "service_type": "event_venues", "address": "Via Enrico Albanese 24 90139 Palermo Italy", "city": "Palermo", "contact": "+390916257228", "hours": "null", "picture_url": "https://s3-media0.fl.yelpcdn.com/bphoto/jMUJH1DE01puLN3xLdEoJQ/o.jpg", "website": "https://www.yelp.com/biz/mud%C3%B9-palermo-2?adjust_creative=fQEgjgf16LQ5Et2n5ni8xw&utm_campaign=yelp_api_v3&utm_medium=api_v3_business_search&utm_source=fQEgjgf16LQ5Et2n5ni8xw"}, {"name": "Osteria dei Vespri", "service_type": "event_venues", "address": "Piazza Croce dei Vespri 6 90133 Palermo Italy", "city": "Palermo", "contact": "", "hours": "null", "picture_url": "https://s3-media0.fl.yelpcdn.com/bphoto/Yztxr7zrattjHP28N9FTzw/o.jpg", "website": "https://www.yelp.com/biz/osteria-dei-vespri-palermo?adjust_creative=fQEgjgf16LQ5Et2n5ni8xw&utm_campaign=yelp_api_v3&utm_medium=api_v3_business_search&utm_source=fQEgjgf16LQ5Et2n5ni8xw"}, {"name": "I Cuochini", "service_type": "event_venues", "address": "Via Settimo Ruggero 68 90139 Palermo Italy", "city": "Palermo", "contact": "+39091581158", "hours": "null", "picture_url": "https://s3-media0.fl.yelpcdn.com/bphoto/e69QhJrX1nqT_6eLMrN6Eg/o.jpg", "website": "https://www.yelp.com/biz/i-cuochini-palermo?adjust_creative=fQEgjgf16LQ5Et2n5ni8xw&utm_campaign=yelp_api_v3&utm_medium=api_v3_business_search&utm_source=fQEgjgf16LQ5Et2n5ni8xw"}, {"name": "Kuaizi", "service_type": "event_venues", "address": "Via Emerico Amari 57A 90139 Palermo Italy", "city": "Palermo", "contact": "+39091331602", "hours": "null", "picture_url": "https://s3-media0.fl.yelpcdn.com/bphoto/1xgb1fb9GGwh8mgKfLn3hA/o.jpg", "website": "https://www.yelp.com/biz/kuaizi-palermo?adjust_creative=fQEgjgf16LQ5Et2n5ni8xw&utm_campaign=yelp_api_v3&utm_medium=api_v3_business_search&utm_source=fQEgjgf16LQ5Et2n5ni8xw"}, {"name": "Costa", "service_type": "event_venues", "address": "Via Maqueda 174 90133 Palermo Italy", "city": "Palermo", "contact": "+390919807927", "hours": "null", "picture_url": "https://s3-media0.fl.yelpcdn.com/bphoto/9NeUmGOyRLvP9aX1jQm5sg/o.jpg", "website": "https://www.yelp.com/biz/costa-palermo-2?adjust_creative=fQEgjgf16LQ5Et2n5ni8xw&utm_campaign=yelp_api_v3&utm_medium=api_v3_business_search&utm_source=fQEgjgf16LQ5Et2n5ni8xw"}, {"name": "Osteria al Casareccio", "service_type": "event_venues", "address": "Via Maccherronai 47 90133 Palermo Italy", "city": "Palermo", "contact": "+390912713912", "hours": "null", "picture_url": "https://s3-media0.fl.yelpcdn.com/bphoto/syzYyOEI2meTHHaH6qb27g/o.jpg", "website": "https://www.yelp.com/biz/osteria-al-casareccio-palermo?adjust_creative=fQEgjgf16LQ5Et2n5ni8xw&utm_campaign=yelp_api_v3&utm_medium=api_v3_business_search&utm_source=fQEgjgf16LQ5Et2n5ni8xw"}, {"name": "Frida Pizzeria", "service_type": "florist", "address": "Piazza Sant'Onofrio 37 90134 Palermo Italy", "city": "Palermo", "contact": "+390915505440", "hours": "null", "picture_url": "https://s3-media0.fl.yelpcdn.com/bphoto/RSd_JQkGi70MNrdyZvTFvw/o.jpg", "website": "https://www.yelp.com/biz/frida-pizzeria-palermo-2?adjust_creative=fQEgjgf16LQ5Et2n5ni8xw&utm_campaign=yelp_api_v3&utm_medium=api_v3_business_search&utm_source=fQEgjgf16LQ5Et2n5ni8xw"}, {"name": "La Corte dei Mangioni", "service_type": "florist", "address": "Via Sammartino 97 90141 Palermo Italy", "city": "Palermo", "contact": "+390916255360", "hours": "null", "picture_url": "https://s3-media0.fl.yelpcdn.com/bphoto/VCRhOff0qJguWYIxImIRiQ/o.jpg", "website": "https://www.yelp.com/biz/la-corte-dei-mangioni-palermo-2?adjust_creative=fQEgjgf16LQ5Et2n5ni8xw&utm_campaign=yelp_api_v3&utm_medium=api_v3_business_search&utm_source=fQEgjgf16LQ5Et2n5ni8xw"}, {"name": "I Cucci", "service_type": "florist", "address": "Piazza Bologni 3 90134 Palermo Italy", "city": "Palermo", "contact": "+390917477151", "hours": "null", "picture_url": "https://s3-media0.fl.yelpcdn.com/bphoto/BPWOKI9N4xWbFTKEfVk2Qw/o.jpg", "website": "https://www.yelp.com/biz/i-cucci-palermo?adjust_creative=fQEgjgf16LQ5Et2n5ni8xw&utm_campaign=yelp_api_v3&utm_medium=api_v3_business_search&utm_source=fQEgjgf16LQ5Et2n5ni8xw"}, {"name": "Ristorante PRIMI PIATTI", "service_type": "florist", "address": "Vicolo San Giuseppe 2/c 90134 Palermo Italy", "city": "Palermo", "contact": "+390916111110", "hours": "null", "picture_url": "https://s3-media0.fl.yelpcdn.com/bphoto/szqP582jgmykWqJXV0BiPA/o.jpg", "website": "https://www.yelp.com/biz/ristorante-primi-piatti-palermo-4?adjust_creative=fQEgjgf16LQ5Et2n5ni8xw&utm_campaign=yelp_api_v3&utm_medium=api_v3_business_search&utm_source=fQEgjgf16LQ5Et2n5ni8xw"}, {"name": "Ferro di Cavallo", "service_type": "florist", "address": "Via Venezia 20 90133 Palermo Italy", "city": "Palermo", "contact": "+39091331835", "hours": "null", "picture_url": "https://s3-media0.fl.yelpcdn.com/bphoto/AZiytdDJSPgLZfPlY4C5uA/o.jpg", "website": "https://www.yelp.com/biz/ferro-di-cavallo-palermo?adjust_creative=fQEgjgf16LQ5Et2n5ni8xw&utm_campaign=yelp_api_v3&utm_medium=api_v3_business_search&utm_source=fQEgjgf16LQ5Et2n5ni8xw"}, {"name": "La Galleria", "service_type": "florist", "address": "Piazza Sett'Angeli 3 90134 Palermo Italy", "city": "Palermo", "contact": "+393299815433", "hours": "null", "picture_url": "https://s3-media0.fl.yelpcdn.com/bphoto/nl-AS6eE3AF01Qpwnl_ysw/o.jpg", "website": "https://www.yelp.com/biz/la-galleria-palermo?adjust_creative=fQEgjgf16LQ5Et2n5ni8xw&utm_campaign=yelp_api_v3&utm_medium=api_v3_business_search&utm_source=fQEgjgf16LQ5Et2n5ni8xw"}, {"name": "Antica Focacceria San Francesco", "service_type": "florist", "address": "Via Alessandro Paternostro 58 90133 Palermo Italy", "city": "Palermo", "contact": "+39091320264", "hours": "null", "picture_url": "https://s3-media0.fl.yelpcdn.com/bphoto/LyYW8HjsZK-UYkMe-PnjHA/o.jpg", "website": "https://www.yelp.com/biz/antica-focacceria-san-francesco-palermo?adjust_creative=fQEgjgf16LQ5Et2n5ni8xw&utm_campaign=yelp_api_v3&utm_medium=api_v3_business_search&utm_source=fQEgjgf16LQ5Et2n5ni8xw"}, {"name": "Caff\u00e8 Pasticceria Spinnato", "service_type": "florist", "address": "Via Principe di Belmonte 111 90139 Palermo Italy", "city": "Palermo", "contact": "+390917495104", "hours": "null", "picture_url": "https://s3-media0.fl.yelpcdn.com/bphoto/qk0Bg09XAaDebzSRi4I08g/o.jpg", "website": "https://www.yelp.com/biz/caff%C3%A8-pasticceria-spinnato-palermo-2?adjust_creative=fQEgjgf16LQ5Et2n5ni8xw&utm_campaign=yelp_api_v3&utm_medium=api_v3_business_search&utm_source=fQEgjgf16LQ5Et2n5ni8xw"}, {"name": "Giada", "service_type": "florist", "address": "Via Principe di Belmonte 64 90139 Palermo Italy", "city": "Palermo", "contact": "+39091331860", "hours": "null", "picture_url": "https://s3-media0.fl.yelpcdn.com/bphoto/tLBIQCCIKdIiEqRWJQaDJA/o.jpg", "website": "https://www.yelp.com/biz/giada-palermo?adjust_creative=fQEgjgf16LQ5Et2n5ni8xw&utm_campaign=yelp_api_v3&utm_medium=api_v3_business_search&utm_source=fQEgjgf16LQ5Et2n5ni8xw"}, {"name": "Bisso", "service_type": "florist", "address": "Via Maqueda 172A 90133 Palermo Italy", "city": "Palermo", "contact": "+393281314595", "hours": "null", "picture_url": "https://s3-media0.fl.yelpcdn.com/bphoto/9NIqzR6PHdSFAO-EjEnL9g/o.jpg", "website": "https://www.yelp.com/biz/bisso-palermo?adjust_creative=fQEgjgf16LQ5Et2n5ni8xw&utm_campaign=yelp_api_v3&utm_medium=api_v3_business_search&utm_source=fQEgjgf16LQ5Et2n5ni8xw"}, {"name": "Casa del Brodo", "service_type": "florist", "address": "Via Vittorio Emanuele 175 90133 Palermo Italy", "city": "Palermo", "contact": "+39091321655", "hours": "null", "picture_url": "https://s3-media0.fl.yelpcdn.com/bphoto/ubKT0i5Rmzyyri5G7pyBrg/o.jpg", "website": "https://www.yelp.com/biz/casa-del-brodo-palermo?adjust_creative=fQEgjgf16LQ5Et2n5ni8xw&utm_campaign=yelp_api_v3&utm_medium=api_v3_business_search&utm_source=fQEgjgf16LQ5Et2n5ni8xw"}, {"name": "Da Bacco", "service_type": "florist", "address": "Via Orologio 29 90133 Palermo Italy", "city": "Palermo", "contact": "+393663963395", "hours": "null", "picture_url": "https://s3-media0.fl.yelpcdn.com/bphoto/Ezog2zysva1scbPwtBg6eQ/o.jpg", "website": "https://www.yelp.com/biz/da-bacco-palermo?adjust_creative=fQEgjgf16LQ5Et2n5ni8xw&utm_campaign=yelp_api_v3&utm_medium=api_v3_business_search&utm_source=fQEgjgf16LQ5Et2n5ni8xw"}, {"name": "Osteria Ballaro", "service_type": "florist", "address": "Via Calascibetta, 25 Pa 90133 Palermo Italy", "city": "Palermo", "contact": "+390917910184", "hours": "null", "picture_url": "https://s3-media0.fl.yelpcdn.com/bphoto/gNRlbLFTwJdjnpp_LXMOQg/o.jpg", "website": "https://www.yelp.com/biz/osteria-ballaro-palermo?adjust_creative=fQEgjgf16LQ5Et2n5ni8xw&utm_campaign=yelp_api_v3&utm_medium=api_v3_business_search&utm_source=fQEgjgf16LQ5Et2n5ni8xw"}, {"name": "CIN CIN", "service_type": "florist", "address": "Via Daniele Manin 22 90139 Palermo Italy", "city": "Palermo", "contact": "+390916112038", "hours": "null", "picture_url": "https://s3-media0.fl.yelpcdn.com/bphoto/vhjxk-9VtgfgrmeMDvoGdg/o.jpg", "website": "https://www.yelp.com/biz/cin-cin-palermo?adjust_creative=fQEgjgf16LQ5Et2n5ni8xw&utm_campaign=yelp_api_v3&utm_medium=api_v3_business_search&utm_source=fQEgjgf16LQ5Et2n5ni8xw"}, {"name": "Piccolo Napoli", "service_type": "florist", "address": "Piazzetta Mulino a Vento 4 90139 Palermo Italy", "city": "Palermo", "contact": "+39091320431", "hours": "null", "picture_url": "https://s3-media0.fl.yelpcdn.com/bphoto/6aw4-DHZIbu9n9GitT2Yew/o.jpg", "website": "https://www.yelp.com/biz/piccolo-napoli-palermo?adjust_creative=fQEgjgf16LQ5Et2n5ni8xw&utm_campaign=yelp_api_v3&utm_medium=api_v3_business_search&utm_source=fQEgjgf16LQ5Et2n5ni8xw"}, {"name": "Cattedrale di Palermo", "service_type": "florist", "address": "Via Vittorio Emanuele 90040 Palermo Italy", "city": "Palermo", "contact": "+39091334373", "hours": "null", "picture_url": "https://s3-media0.fl.yelpcdn.com/bphoto/RPWbKJBBI90uUZxKGoElnw/o.jpg", "website": "https://www.yelp.com/biz/cattedrale-di-palermo-palermo?adjust_creative=fQEgjgf16LQ5Et2n5ni8xw&utm_campaign=yelp_api_v3&utm_medium=api_v3_business_search&utm_source=fQEgjgf16LQ5Et2n5ni8xw"}, {"name": "La Duchessa", "service_type": "florist", "address": "Via Principe di Belmonte 69 90100 Palermo Italy", "city": "Palermo", "contact": "+390915086896", "hours": "null", "picture_url": "https://s3-media0.fl.yelpcdn.com/bphoto/gbgnxC3pYv4XNdx_YC83SQ/o.jpg", "website": "https://www.yelp.com/biz/la-duchessa-palermo?adjust_creative=fQEgjgf16LQ5Et2n5ni8xw&utm_campaign=yelp_api_v3&utm_medium=api_v3_business_search&utm_source=fQEgjgf16LQ5Et2n5ni8xw"}, {"name": "FUD", "service_type": "florist", "address": "Piazza Olivella 4 90133 Palermo Italy", "city": "Palermo", "contact": "+390916112184", "hours": "null", "picture_url": "https://s3-media0.fl.yelpcdn.com/bphoto/S4A_xe30hM-4LnCLDJEeWQ/o.jpg", "website": "https://www.yelp.com/biz/fud-palermo?adjust_creative=fQEgjgf16LQ5Et2n5ni8xw&utm_campaign=yelp_api_v3&utm_medium=api_v3_business_search&utm_source=fQEgjgf16LQ5Et2n5ni8xw"}, {"name": "Sal Capone SushiClub", "service_type": "florist", "address": "Via Catania,44 90141 Palermo Italy", "city": "Palermo", "contact": "+390916258285", "hours": "null", "picture_url": "https://s3-media0.fl.yelpcdn.com/bphoto/a5N8xtH8y6elEAJ3--TkTg/o.jpg", "website": "https://www.yelp.com/biz/sal-capone-sushiclub-palermo-2?adjust_creative=fQEgjgf16LQ5Et2n5ni8xw&utm_campaign=yelp_api_v3&utm_medium=api_v3_business_search&utm_source=fQEgjgf16LQ5Et2n5ni8xw"}, {"name": "Mangia & Bevi", "service_type": "florist", "address": "Largo cavalieri di Malta 18 90133 Palermo Italy", "city": "Palermo", "contact": "+390915073943", "hours": "null", "picture_url": "https://s3-media0.fl.yelpcdn.com/bphoto/-V4-nsQ4OZMzecrWit0ldA/o.jpg", "website": "https://www.yelp.com/biz/mangia-e-bevi-palermo?adjust_creative=fQEgjgf16LQ5Et2n5ni8xw&utm_campaign=yelp_api_v3&utm_medium=api_v3_business_search&utm_source=fQEgjgf16LQ5Et2n5ni8xw"}, {"name": "Trattoria Biondo", "service_type": "florist", "address": "Via Giosue' Carducci 15 90141 Palermo Italy", "city": "Palermo", "contact": "+39091583662", "hours": "null", "picture_url": "https://s3-media0.fl.yelpcdn.com/bphoto/X_l7nBZwG7tN4mGnIktPrg/o.jpg", "website": "https://www.yelp.com/biz/trattoria-biondo-palermo?adjust_creative=fQEgjgf16LQ5Et2n5ni8xw&utm_campaign=yelp_api_v3&utm_medium=api_v3_business_search&utm_source=fQEgjgf16LQ5Et2n5ni8xw"}, {"name": "Nni Franco 'u Vastiddaru", "service_type": "florist", "address": "Via Vittorio Emanuele 102 90133 Palermo Italy", "city": "Palermo", "contact": "+39091325987", "hours": "null", "picture_url": "https://s3-media0.fl.yelpcdn.com/bphoto/lu4dYowix6-rMDqi7kUCcQ/o.jpg", "website": "https://www.yelp.com/biz/nni-franco-u-vastiddaru-palermo?adjust_creative=fQEgjgf16LQ5Et2n5ni8xw&utm_campaign=yelp_api_v3&utm_medium=api_v3_business_search&utm_source=fQEgjgf16LQ5Et2n5ni8xw"}, {"name": "Arancina D'Autore", "service_type": "florist", "address": "Via Maqueda 270 90133 Palermo Italy", "city": "Palermo", "contact": "+390916112009", "hours": "null", "picture_url": "https://s3-media0.fl.yelpcdn.com/bphoto/Ah9JeSgUD6ejy4HEGZtK2Q/o.jpg", "website": "https://www.yelp.com/biz/arancina-d-autore-palermo?adjust_creative=fQEgjgf16LQ5Et2n5ni8xw&utm_campaign=yelp_api_v3&utm_medium=api_v3_business_search&utm_source=fQEgjgf16LQ5Et2n5ni8xw"}, {"name": "Ke Palle", "service_type": "florist", "address": "Via Terrasanta 111 90141 Palermo Italy", "city": "Palermo", "contact": "", "hours": "null", "picture_url": "https://s3-media0.fl.yelpcdn.com/bphoto/8U7ULq-63KN_9IYdEsGq9A/o.jpg", "website": "https://www.yelp.com/biz/ke-palle-palermo?adjust_creative=fQEgjgf16LQ5Et2n5ni8xw&utm_campaign=yelp_api_v3&utm_medium=api_v3_business_search&utm_source=fQEgjgf16LQ5Et2n5ni8xw"}, {"name": "Antica Trattoria Pizzeria Enzo", "service_type": "florist", "address": "Via Maurolico 17 90127 Palermo Italy", "city": "Palermo", "contact": "+390916163854", "hours": "null", "picture_url": "https://s3-media0.fl.yelpcdn.com/bphoto/yTY1QF4D1HT6s_N6S7RZjg/o.jpg", "website": "https://www.yelp.com/biz/antica-trattoria-pizzeria-enzo-palermo?adjust_creative=fQEgjgf16LQ5Et2n5ni8xw&utm_campaign=yelp_api_v3&utm_medium=api_v3_business_search&utm_source=fQEgjgf16LQ5Et2n5ni8xw"}, {"name": "Ottava Nota", "service_type": "florist", "address": "Via Butera 55 90133 Palermo Italy", "city": "Palermo", "contact": "+390916168601", "hours": "null", "picture_url": "https://s3-media0.fl.yelpcdn.com/bphoto/oYXWvuiMO-sFgX-Atx7k3g/o.jpg", "website": "https://www.yelp.com/biz/ottava-nota-palermo?adjust_creative=fQEgjgf16LQ5Et2n5ni8xw&utm_campaign=yelp_api_v3&utm_medium=api_v3_business_search&utm_source=fQEgjgf16LQ5Et2n5ni8xw"}, {"name": "Le Delizie di Cagliostro", "service_type": "florist", "address": "Corso Vittorio Emanuele 150 90133 Palermo Italy", "city": "Palermo", "contact": "+39091332818", "hours": "null", "picture_url": "https://s3-media0.fl.yelpcdn.com/bphoto/qgaMHiQ0aKm0R90YzRteMA/o.jpg", "website": "https://www.yelp.com/biz/le-delizie-di-cagliostro-palermo?adjust_creative=fQEgjgf16LQ5Et2n5ni8xw&utm_campaign=yelp_api_v3&utm_medium=api_v3_business_search&utm_source=fQEgjgf16LQ5Et2n5ni8xw"}, {"name": "Kus Kus", "service_type": "florist", "address": "Piazza Virgilio 9 90141 Palermo Italy", "city": "Palermo", "contact": "+39091586525", "hours": "null", "picture_url": "https://s3-media0.fl.yelpcdn.com/bphoto/EvXT18LD_NSJuos2rv44Ow/o.jpg", "website": "https://www.yelp.com/biz/kus-kus-palermo?adjust_creative=fQEgjgf16LQ5Et2n5ni8xw&utm_campaign=yelp_api_v3&utm_medium=api_v3_business_search&utm_source=fQEgjgf16LQ5Et2n5ni8xw"}, {"name": "Mak Mixology", "service_type": "florist", "address": "Via Bari 50 90133 Palermo Italy", "city": "Palermo", "contact": "+390916745668", "hours": "null", "picture_url": "https://s3-media0.fl.yelpcdn.com/bphoto/0JfupV-nDQtR65tKwYZ8xQ/o.jpg", "website": "https://www.yelp.com/biz/mak-mixology-palermo?adjust_creative=fQEgjgf16LQ5Et2n5ni8xw&utm_campaign=yelp_api_v3&utm_medium=api_v3_business_search&utm_source=fQEgjgf16LQ5Et2n5ni8xw"}, {"name": "Buatta", "service_type": "florist", "address": "Via Vittorio Emanuele 176 90133 Palermo Italy", "city": "Palermo", "contact": "+39091322378", "hours": "null", "picture_url": "https://s3-media0.fl.yelpcdn.com/bphoto/vEvwaRUgC9PyuEUH0sYj0A/o.jpg", "website": "https://www.yelp.com/biz/buatta-palermo?adjust_creative=fQEgjgf16LQ5Et2n5ni8xw&utm_campaign=yelp_api_v3&utm_medium=api_v3_business_search&utm_source=fQEgjgf16LQ5Et2n5ni8xw"}, {"name": "MadoniEAT", "service_type": "florist", "address": "Via Butera 20 90133 Palermo Italy", "city": "Palermo", "contact": "+390917521749", "hours": "null", "picture_url": "https://s3-media0.fl.yelpcdn.com/bphoto/LTSIaOFkVeBrbSXqLxiCWg/o.jpg", "website": "https://www.yelp.com/biz/madonieat-palermo?adjust_creative=fQEgjgf16LQ5Et2n5ni8xw&utm_campaign=yelp_api_v3&utm_medium=api_v3_business_search&utm_source=fQEgjgf16LQ5Et2n5ni8xw"}, {"name": "Pani Ca' Meusa", "service_type": "florist", "address": "Porta Carbone Via Cala 62 90133 Palermo Italy", "city": "Palermo", "contact": "+3904491323433", "hours": "null", "picture_url": "https://s3-media0.fl.yelpcdn.com/bphoto/ydx7yKnFvS7CAg_RSy-Bbw/o.jpg", "website": "https://www.yelp.com/biz/pani-ca-meusa-palermo?adjust_creative=fQEgjgf16LQ5Et2n5ni8xw&utm_campaign=yelp_api_v3&utm_medium=api_v3_business_search&utm_source=fQEgjgf16LQ5Et2n5ni8xw"}, {"name": "Locale", "service_type": "florist", "address": "Via Francesco Guardione 88 90139 Palermo Italy", "city": "Palermo", "contact": "+390917932430", "hours": "null", "picture_url": "https://s3-media0.fl.yelpcdn.com/bphoto/FE_zIsNYEReywog5Kk7uMg/o.jpg", "website": "https://www.yelp.com/biz/locale-palermo-3?adjust_creative=fQEgjgf16LQ5Et2n5ni8xw&utm_campaign=yelp_api_v3&utm_medium=api_v3_business_search&utm_source=fQEgjgf16LQ5Et2n5ni8xw"}, {"name": "Bar Touring", "service_type": "florist", "address": "Via A de Gasperi 237 90144 Palermo Italy", "city": "Palermo", "contact": "+39091517682", "hours": "null", "picture_url": "https://s3-media0.fl.yelpcdn.com/bphoto/HDx4psfV3CRVjUQoOnfxRQ/o.jpg", "website": "https://www.yelp.com/biz/bar-touring-palermo-3?adjust_creative=fQEgjgf16LQ5Et2n5ni8xw&utm_campaign=yelp_api_v3&utm_medium=api_v3_business_search&utm_source=fQEgjgf16LQ5Et2n5ni8xw"}, {"name": "Osteria Proseccheria Mercede", "service_type": "florist", "address": "Via Pignatelli Aragona 52 90138 Palermo Italy", "city": "Palermo", "contact": "+39091332243", "hours": "null", "picture_url": "https://s3-media0.fl.yelpcdn.com/bphoto/ve-OZZXV_p4M0NqYLu97aQ/o.jpg", "website": "https://www.yelp.com/biz/osteria-proseccheria-mercede-palermo?adjust_creative=fQEgjgf16LQ5Et2n5ni8xw&utm_campaign=yelp_api_v3&utm_medium=api_v3_business_search&utm_source=fQEgjgf16LQ5Et2n5ni8xw"}, {"name": "Pizza e Cucina", "service_type": "florist", "address": "Via XX Settembre 65A 90141 Palermo Italy", "city": "Palermo", "contact": "+390918876790", "hours": "null", "picture_url": "https://s3-media0.fl.yelpcdn.com/bphoto/96MCxIeWmsovLFsCr-VYlQ/o.jpg", "website": "https://www.yelp.com/biz/pizza-e-cucina-palermo?adjust_creative=fQEgjgf16LQ5Et2n5ni8xw&utm_campaign=yelp_api_v3&utm_medium=api_v3_business_search&utm_source=fQEgjgf16LQ5Et2n5ni8xw"}, {"name": "Catacombe dei Cappuccini", "service_type": "florist", "address": "Piazza Cappuccini 1 90129 Palermo Italy", "city": "Palermo", "contact": "+390916527389", "hours": "null", "picture_url": "https://s3-media0.fl.yelpcdn.com/bphoto/5LCIwLqLKNpW0x2nRsUiEg/o.jpg", "website": "https://www.yelp.com/biz/catacombe-dei-cappuccini-palermo?adjust_creative=fQEgjgf16LQ5Et2n5ni8xw&utm_campaign=yelp_api_v3&utm_medium=api_v3_business_search&utm_source=fQEgjgf16LQ5Et2n5ni8xw"}, {"name": "Il Signor di Carbognano", "service_type": "florist", "address": "Via Notarbartolo 2C 90141 Palermo Italy", "city": "Palermo", "contact": "+390916258983", "hours": "null", "picture_url": "https://s3-media0.fl.yelpcdn.com/bphoto/sI7pZ0UBDnki_R9S-1OZUw/o.jpg", "website": "https://www.yelp.com/biz/il-signor-di-carbognano-palermo?adjust_creative=fQEgjgf16LQ5Et2n5ni8xw&utm_campaign=yelp_api_v3&utm_medium=api_v3_business_search&utm_source=fQEgjgf16LQ5Et2n5ni8xw"}, {"name": "Osteria Lo Bianco", "service_type": "florist", "address": "Via Emerico Amari 104 90139 Palermo Italy", "city": "Palermo", "contact": "+390912514906", "hours": "null", "picture_url": "https://s3-media0.fl.yelpcdn.com/bphoto/6_Jogi83T24jjSHAM8knVg/o.jpg", "website": "https://www.yelp.com/biz/osteria-lo-bianco-palermo-5?adjust_creative=fQEgjgf16LQ5Et2n5ni8xw&utm_campaign=yelp_api_v3&utm_medium=api_v3_business_search&utm_source=fQEgjgf16LQ5Et2n5ni8xw"}, {"name": "Tribeca", "service_type": "florist", "address": "via Mariano Stabile Palermo Italy", "city": "Palermo", "contact": "", "hours": "null", "picture_url": "https://s3-media0.fl.yelpcdn.com/bphoto/rpI79nFFvvdllCcjpgdt4Q/o.jpg", "website": "https://www.yelp.com/biz/tribeca-palermo?adjust_creative=fQEgjgf16LQ5Et2n5ni8xw&utm_campaign=yelp_api_v3&utm_medium=api_v3_business_search&utm_source=fQEgjgf16LQ5Et2n5ni8xw"}, {"name": "Bioesser\u00ec", "service_type": "florist", "address": "Via Giuseppe la Farina 4 90141 Palermo Italy", "city": "Palermo", "contact": "+390917657142", "hours": "null", "picture_url": "", "website": "https://www.yelp.com/biz/bioesser%C3%AC-palermo-2?adjust_creative=fQEgjgf16LQ5Et2n5ni8xw&utm_campaign=yelp_api_v3&utm_medium=api_v3_business_search&utm_source=fQEgjgf16LQ5Et2n5ni8xw"}, {"name": "Taverna dei Canti", "service_type": "florist", "address": "Via Maqueda 229 90133 Palermo Italy", "city": "Palermo", "contact": "+390917521311", "hours": "null", "picture_url": "https://s3-media0.fl.yelpcdn.com/bphoto/TxTXSKVWESaItdtwUlj5LQ/o.jpg", "website": "https://www.yelp.com/biz/taverna-dei-canti-palermo?adjust_creative=fQEgjgf16LQ5Et2n5ni8xw&utm_campaign=yelp_api_v3&utm_medium=api_v3_business_search&utm_source=fQEgjgf16LQ5Et2n5ni8xw"}, {"name": "Trattoria Altri Tempi", "service_type": "florist", "address": "Via Sammartino 65 90141 Palermo Italy", "city": "Palermo", "contact": "+39091323480", "hours": "null", "picture_url": "https://s3-media0.fl.yelpcdn.com/bphoto/yflZF0C5Mw7x1X_pHO_9BQ/o.jpg", "website": "https://www.yelp.com/biz/trattoria-altri-tempi-palermo?adjust_creative=fQEgjgf16LQ5Et2n5ni8xw&utm_campaign=yelp_api_v3&utm_medium=api_v3_business_search&utm_source=fQEgjgf16LQ5Et2n5ni8xw"}, {"name": "Cappello Salvatore", "service_type": "florist", "address": "Via Colonna Rotta 68 90134 Palermo Italy", "city": "Palermo", "contact": "+39091489601", "hours": "null", "picture_url": "https://s3-media0.fl.yelpcdn.com/bphoto/W-qKQPf5b6Q_xNCaYBI56Q/o.jpg", "website": "https://www.yelp.com/biz/cappello-salvatore-palermo?adjust_creative=fQEgjgf16LQ5Et2n5ni8xw&utm_campaign=yelp_api_v3&utm_medium=api_v3_business_search&utm_source=fQEgjgf16LQ5Et2n5ni8xw"}, {"name": "Mud\u00f9", "service_type": "florist", "address": "Via Enrico Albanese 24 90139 Palermo Italy", "city": "Palermo", "contact": "+390916257228", "hours": "null", "picture_url": "https://s3-media0.fl.yelpcdn.com/bphoto/jMUJH1DE01puLN3xLdEoJQ/o.jpg", "website": "https://www.yelp.com/biz/mud%C3%B9-palermo-2?adjust_creative=fQEgjgf16LQ5Et2n5ni8xw&utm_campaign=yelp_api_v3&utm_medium=api_v3_business_search&utm_source=fQEgjgf16LQ5Et2n5ni8xw"}, {"name": "Osteria dei Vespri", "service_type": "florist", "address": "Piazza Croce dei Vespri 6 90133 Palermo Italy", "city": "Palermo", "contact": "", "hours": "null", "picture_url": "https://s3-media0.fl.yelpcdn.com/bphoto/Yztxr7zrattjHP28N9FTzw/o.jpg", "website": "https://www.yelp.com/biz/osteria-dei-vespri-palermo?adjust_creative=fQEgjgf16LQ5Et2n5ni8xw&utm_campaign=yelp_api_v3&utm_medium=api_v3_business_search&utm_source=fQEgjgf16LQ5Et2n5ni8xw"}, {"name": "I Cuochini", "service_type": "florist", "address": "Via Settimo Ruggero 68 90139 Palermo Italy", "city": "Palermo", "contact": "+39091581158", "hours": "null", "picture_url": "https://s3-media0.fl.yelpcdn.com/bphoto/e69QhJrX1nqT_6eLMrN6Eg/o.jpg", "website": "https://www.yelp.com/biz/i-cuochini-palermo?adjust_creative=fQEgjgf16LQ5Et2n5ni8xw&utm_campaign=yelp_api_v3&utm_medium=api_v3_business_search&utm_source=fQEgjgf16LQ5Et2n5ni8xw"}, {"name": "Kuaizi", "service_type": "florist", "address": "Via Emerico Amari 57A 90139 Palermo Italy", "city": "Palermo", "contact": "+39091331602", "hours": "null", "picture_url": "https://s3-media0.fl.yelpcdn.com/bphoto/1xgb1fb9GGwh8mgKfLn3hA/o.jpg", "website": "https://www.yelp.com/biz/kuaizi-palermo?adjust_creative=fQEgjgf16LQ5Et2n5ni8xw&utm_campaign=yelp_api_v3&utm_medium=api_v3_business_search&utm_source=fQEgjgf16LQ5Et2n5ni8xw"}, {"name": "Costa", "service_type": "florist", "address": "Via Maqueda 174 90133 Palermo Italy", "city": "Palermo", "contact": "+390919807927", "hours": "null", "picture_url": "https://s3-media0.fl.yelpcdn.com/bphoto/9NeUmGOyRLvP9aX1jQm5sg/o.jpg", "website": "https://www.yelp.com/biz/costa-palermo-2?adjust_creative=fQEgjgf16LQ5Et2n5ni8xw&utm_campaign=yelp_api_v3&utm_medium=api_v3_business_search&utm_source=fQEgjgf16LQ5Et2n5ni8xw"}, {"name": "Osteria al Casareccio", "service_type": "florist", "address": "Via Maccherronai 47 90133 Palermo Italy", "city": "Palermo", "contact": "+390912713912", "hours": "null", "picture_url": "https://s3-media0.fl.yelpcdn.com/bphoto/syzYyOEI2meTHHaH6qb27g/o.jpg", "website": "https://www.yelp.com/biz/osteria-al-casareccio-palermo?adjust_creative=fQEgjgf16LQ5Et2n5ni8xw&utm_campaign=yelp_api_v3&utm_medium=api_v3_business_search&utm_source=fQEgjgf16LQ5Et2n5ni8xw"}]